datacoverage,elevation,elevationUnit,id,latitude,longitude,maxdate,mindate,name,square_diagonal,query_count,query_long,query_lat,dist_from_center,p_name
0.9725,1235.4,METERS,GHCND_USC00425733,38.5744,-109.5458,10/16/2018,1893-01-01,"MOAB, UT US",2.567836929,15,-109.385004,37.89406956,0.699074293,Latigo
0.983,1247.5,METERS,GHCND_USC00420336,38.6163,-109.6191,10/17/2018,6/1/1980,"ARCHES NATIONAL PARK HQS, UT US",2.567836929,15,-109.385004,37.89406956,0.759221807,Latigo
0.9165,1252.4,METERS,GHCND_USC00425582,37.1497,-109.8675,4/30/2018,7/1/1940,"MEXICAN HAT, UT US",2.567836929,15,-109.385004,37.89406956,0.887067317,Latigo
0.9283,253,METERS,GHCND_USC00456768,46.2014,-119.758,10/17/2018,7/1/1925,"PROSSER, WA US",3.081404315,16,-120.0725378,45.73738395,0.560575504,North Hurlburt
0.8412,570,METERS,GHCND_USC00355734,45.4825,-120.7236,10/11/2018,1897-11-01,"MORO, OR US",3.081404315,16,-120.0725378,45.73738395,0.699176564,North Hurlburt
0.9957,195.4,METERS,GHCND_USW00004113,45.82583,-119.26111,10/16/2018,3/16/1998,"HERMISTON MUNICIPAL AIRPORT, OR US",3.081404315,16,-120.0725378,45.73738395,0.816233861,North Hurlburt
0.999,1504.5,METERS,GHCND_USW00094057,42.79611,-105.38028,10/16/2018,7/1/1999,"CONVERSE CO AIRPORT ASOS, WY US",3.697685178,17,-105.8388327,43.06515667,0.531654667,Rolling Hills
0.8911,1620.9,METERS,GHCND_USW00024089,42.89779,-106.47371,10/16/2018,1/1/1940,"CASPER NATRONA CO AIRPORT, WY US",3.697685178,17,-105.8388327,43.06515667,0.656567431,Rolling Hills
0.808,1805.3,METERS,GHCND_USC00487105,42.47165,-106.85268,8/31/2018,10/1/1905,"PATHFINDER DAM, WY US",3.697685178,17,-105.8388327,43.06515667,1.174792117,Rolling Hills
0.5464,585.8,METERS,GHCND_USW00003932,35.3568,-99.2042,10/16/2018,8/17/1958,"CLINTON SHERMAN AIRPORT, OK US",2.567836929,15,-98.67363563,35.46980585,0.542465551,Weatherford Wind Energy Center Expansion
0.9285,484.6,METERS,GHCND_USC00341445,36.06167,-98.59,8/31/2002,5/6/1943,"CANTON, OK US",2.567836929,15,-98.67363563,35.46980585,0.597744166,Weatherford Wind Energy Center Expansion
0.995,474.3,METERS,GHCND_USW00093986,34.9894,-99.0525,10/16/2018,1/1/1910,"HOBART MUNICIPAL AIRPORT, OK US",2.567836929,15,-98.67363563,35.46980585,0.611823499,Weatherford Wind Energy Center Expansion
0.985,18.6,METERS,GHCND_USC00049001,37.79589,-121.58319,10/16/2018,2/1/1955,"TRACY PUMPING PLANT, CA US",1.238347284,11,-121.6406965,37.76908345,0.063447482,Golden Hills North
0.9996,119.8,METERS,GHCND_USW00023285,37.6927,-121.8144,10/16/2018,4/6/1998,"LIVERMORE MUNICIPAL AIRPORT, CA US",1.238347284,11,-121.6406965,37.76908345,0.18975604,Golden Hills North
0.9279,18.3,METERS,GHCND_USC00040232,37.9833,-121.7525,8/31/2018,3/1/1955,"ANTIOCH PUMPING PLANT NUMBER 3, CA US",1.238347284,11,-121.6406965,37.76908345,0.241637671,Golden Hills North
1,2214.7,METERS,GHCND_USW00024022,41.3167,-105.6833,10/16/2018,1/1/1948,"LARAMIE AIRPORT, WY US",2.567836929,15,-106.0375318,41.65593479,0.490469612,McFadden Ridge
0.903,2176.3,METERS,GHCND_USC00485435,41.34002,-105.60647,10/17/2018,5/1/1966,"LARAMIE 2 NW, WY US",2.567836929,15,-106.0375318,41.65593479,0.534430974,McFadden Ridge
0.9966,2252.5,METERS,GHCND_USC00485417,41.2847,-105.5319,10/11/2018,3/1/2009,"LARAMIE 4 SE, WY US",2.567836929,15,-106.0375318,41.65593479,0.627278908,McFadden Ridge
0.6654,833.6,METERS,GHCND_USC00045756,35.0492,-118.1619,10/17/2018,1/1/1904,"MOJAVE, CA US",1.486016741,12,-118.3716219,35.03753038,0.210046337,Alta I
0.9921,712.6,METERS,GHCND_USW00003159,34.7411,-118.2116,10/16/2018,4/16/1974,"LANCASTER, CA US",1.486016741,12,-118.3716219,35.03753038,0.336864936,Alta I
0.981,1374.6,METERS,GHCND_USW00023187,34.7436,-118.7242,10/16/2018,1/1/1948,"SANDBERG, CA US",1.486016741,12,-118.3716219,35.03753038,0.459027636,Alta I
0.9283,253,METERS,GHCND_USC00456768,46.2014,-119.758,10/17/2018,7/1/1925,"PROSSER, WA US",2.567836929,15,-119.9927797,45.65274881,0.59677436,Willow Creek
0.8412,570,METERS,GHCND_USC00355734,45.4825,-120.7236,10/11/2018,1897-11-01,"MORO, OR US",2.567836929,15,-119.9927797,45.65274881,0.750388537,Willow Creek
0.9957,195.4,METERS,GHCND_USW00004113,45.82583,-119.26111,10/16/2018,3/16/1998,"HERMISTON MUNICIPAL AIRPORT, OR US",2.567836929,15,-119.9927797,45.65274881,0.751862793,Willow Creek
0.9978,454.2,METERS,GHCND_USC00361705,39.7994,-79.3665,10/17/2018,7/1/1946,"CONFLUENCE 1 SW DAM, PA US",2.139864108,14,-79.12841561,39.8595277,0.2455596,Casselman
0.9651,455.7,METERS,GHCND_USC00188065,39.5099,-79.1401,10/17/2018,2/26/1945,"SAVAGE RIVER DAM, MD US",2.139864108,14,-79.12841561,39.8595277,0.349822885,Casselman
1,294.1,METERS,GHCND_USC00464840,39.42127,-79.00513,10/17/2018,1/1/1996,"KEYSER 2 SSW, WV US",2.139864108,14,-79.12841561,39.8595277,0.455268217,Casselman
0.9661,532.8,METERS,GHCND_USW00014946,44.9047,-97.1494,10/16/2018,1893-01-01,"WATERTOWN REGIONAL AIRPORT, SD US",2.139864108,14,-97.74620609,44.94311291,0.59804102,Oak Tree
0.9998,390.1,METERS,GHCND_USW00014936,44.3981,-98.2231,10/16/2018,1881-07-01,"HURON REGIONAL AIRPORT, SD US",2.139864108,14,-97.74620609,44.94311291,0.72420085,Oak Tree
0.9937,395.3,METERS,GHCND_USW00014929,45.4433,-98.413,10/16/2018,1893-01-01,"ABERDEEN REGIONAL AIRPORT, SD US",2.139864108,14,-97.74620609,44.94311291,0.833547385,Oak Tree
0.6654,833.6,METERS,GHCND_USC00045756,35.0492,-118.1619,10/17/2018,1/1/1904,"MOJAVE, CA US",1.78322009,13,-118.1894589,35.26118997,0.213773815,Pine Tree Wind Farm
0.7252,695.9,METERS,GHCND_USW00053144,34.98833,-117.86472,11/27/2016,5/1/2006,"EDWARDS AFB NORTH AUXILIARY AIRFIELD, CA US",1.78322009,13,-118.1894589,35.26118997,0.424155556,Pine Tree Wind Farm
0.9921,712.6,METERS,GHCND_USW00003159,34.7411,-118.2116,10/16/2018,4/16/1974,"LANCASTER, CA US",1.78322009,13,-118.1894589,35.26118997,0.520561052,Pine Tree Wind Farm
0.9964,694.9,METERS,GHCND_USC00414967,33.06417,-101.04889,10/17/2018,5/1/1994,"LAKE ALAN HENRY, TX US",3.081404315,16,-100.6760702,32.42555656,0.739473943,Loraine II
0.9252,765,METERS,GHCND_USW00023041,32.2443,-101.4537,10/17/2018,1/1/1948,"BIG SPRING, TX US",3.081404315,16,-100.6760702,32.42555656,0.798474807,Loraine II
0.8222,598.6,METERS,GHCND_USC00416499,31.45389,-100.49333,1/31/2008,12/1/1975,"O C FISHER DAM, TX US",3.081404315,16,-100.6760702,32.42555656,0.988701116,Loraine II
0.6654,833.6,METERS,GHCND_USC00045756,35.0492,-118.1619,10/17/2018,1/1/1904,"MOJAVE, CA US",1.486016741,12,-118.2335685,35.097827,0.086608112,Alta X
0.9921,712.6,METERS,GHCND_USW00003159,34.7411,-118.2116,10/16/2018,4/16/1974,"LANCASTER, CA US",1.486016741,12,-118.2335685,35.097827,0.357402811,Alta X
0.7252,695.9,METERS,GHCND_USW00053144,34.98833,-117.86472,11/27/2016,5/1/2006,"EDWARDS AFB NORTH AUXILIARY AIRFIELD, CA US",1.486016741,12,-118.2335685,35.097827,0.384758157,Alta X
0.999,1504.5,METERS,GHCND_USW00094057,42.79611,-105.38028,10/16/2018,7/1/1999,"CONVERSE CO AIRPORT ASOS, WY US",3.697685178,17,-105.8192788,43.06738973,0.516054919,Glenrock
0.8911,1620.9,METERS,GHCND_USW00024089,42.89779,-106.47371,10/16/2018,1/1/1940,"CASPER NATRONA CO AIRPORT, WY US",3.697685178,17,-105.8192788,43.06738973,0.676050442,Glenrock
0.808,1805.3,METERS,GHCND_USC00487105,42.47165,-106.85268,8/31/2018,10/1/1905,"PATHFINDER DAM, WY US",3.697685178,17,-105.8192788,43.06738973,1.192821765,Glenrock
0.5587,123.7,METERS,GHCND_USW00014610,45.6477,-68.6925,10/16/2018,12/1/1944,"MILLINOCKET MUNICIPAL AIRPORT, ME US",2.567836929,15,-68.38023748,45.3459907,0.434207769,Rollins
1,189,METERS,GHCND_USC00178792,45.4353,-67.7213,10/17/2018,12/1/2004,"TOPSFIELD 2, ME US",2.567836929,15,-68.38023748,45.3459907,0.664962215,Rollins
0.9967,45.1,METERS,GHCND_USW00014606,44.7978,-68.8185,10/16/2018,1/1/1953,"BANGOR INTERNATIONAL AIRPORT, ME US",2.567836929,15,-68.38023748,45.3459907,0.701845485,Rollins
0.9952,894.9,METERS,GHCND_USC00418040,35.7048,-101.5492,10/17/2018,10/1/1993,"SANFORD DAM, TX US",2.139864108,14,-101.9048016,35.94636426,0.429890402,Sunray II
0.9936,930.9,METERS,GHCND_USW00003024,35.695,-101.395,10/16/2018,6/1/1997,"BORGER HUTCHINSON CO AIRPORT, TX US",2.139864108,14,-101.9048016,35.94636426,0.568402689,Sunray II
0.9979,1216.2,METERS,GHCND_USW00093042,36.0167,-102.55,10/16/2018,12/10/1948,"DALHART FAA AIRPORT, TX US",2.139864108,14,-101.9048016,35.94636426,0.649020916,Sunray II
0.8412,570,METERS,GHCND_USC00355734,45.4825,-120.7236,10/11/2018,1897-11-01,"MORO, OR US",3.081404315,16,-120.5811387,45.5825241,0.174069041,"Klondike, Phase II (Wasco)"
0.9975,71.6,METERS,GHCND_USW00024219,45.6194,-121.1661,10/15/2018,7/1/1948,"DALLESPORT AIRPORT, WA US",3.081404315,16,-120.5811387,45.5825241,0.586122434,"Klondike, Phase II (Wasco)"
0.9752,152.4,METERS,GHCND_USC00354003,45.6847,-121.5175,10/9/2018,1893-01-01,"HOOD RIVER EXPERIMENT STATION, OR US",3.081404315,16,-120.5811387,45.5825241,0.941919489,"Klondike, Phase II (Wasco)"
0.999,1504.5,METERS,GHCND_USW00094057,42.79611,-105.38028,10/16/2018,7/1/1999,"CONVERSE CO AIRPORT ASOS, WY US",3.697685178,17,-105.8223827,43.02784796,0.499156586,Glenrock III
0.8911,1620.9,METERS,GHCND_USW00024089,42.89779,-106.47371,10/16/2018,1/1/1940,"CASPER NATRONA CO AIRPORT, WY US",3.697685178,17,-105.8223827,43.02784796,0.66418544,Glenrock III
0.808,1805.3,METERS,GHCND_USC00487105,42.47165,-106.85268,8/31/2018,10/1/1905,"PATHFINDER DAM, WY US",3.697685178,17,-105.8223827,43.02784796,1.170841004,Glenrock III
0.9691,140.2,METERS,GHCND_USC00114013,41.26472,-89.33806,6/30/2009,8/1/1962,"HENNEPIN POWER PLANT, IL US",2.567836929,15,-88.7346883,41.17079482,0.610638473,Grand Ridge III&IV
0.9985,216.4,METERS,GHCND_USW00004808,41.77,-88.48139,10/15/2018,10/8/1998,"CHICAGO AURORA MUNICIPAL AIRPORT, IL US",2.567836929,15,-88.7346883,41.17079482,0.650543527,Grand Ridge III&IV
0.6424,181.1,METERS,GHCND_USW00014834,41.5,-88.16667,10/17/2018,1893-11-01,"JOLIET, IL US",2.567836929,15,-88.7346883,41.17079482,0.656521777,Grand Ridge III&IV
0.9788,49,METERS,GHCND_CA00702FQLF,45.1167,-74.2833,10/16/2018,7/6/1994,"ST ANICET 1, CA",1.78322009,13,-73.99393073,44.92135984,0.349130854,Noble Clinton
0.9664,53,METERS,GHCND_CA007027039,45.1667,-73.6833,10/16/2018,9/2/1993,"STE CLOTHILDE, CA",1.78322009,13,-73.99393073,44.92135984,0.395832348,Noble Clinton
0.9484,39,METERS,GHCND_CA00702FHL8,45.4333,-73.9333,10/16/2018,8/26/1993,"STE ANNE DE BELLEVUE 1, CA",1.78322009,13,-73.99393073,44.92135984,0.515518009,Noble Clinton
0.997,216.7,METERS,GHCND_USW00094794,43.145,-75.38389,1/17/2007,12/1/1950,"UTICA ONEIDA CO AIRPORT, NY US",2.139864108,14,-75.55895891,42.92641278,0.280052666,Munnsville
0.9988,158.2,METERS,GHCND_USW00064775,43.23389,-75.41167,10/15/2018,5/28/2007,"ROME GRIFFISS AIRFIELD, NY US",2.139864108,14,-75.55895891,42.92641278,0.340934397,Munnsville
0.9931,472.4,METERS,GHCND_USC00300785,43.4361,-75.3697,10/17/2018,10/1/1949,"BOONVILLE 4 SSW, NY US",2.139864108,14,-75.55895891,42.92641278,0.543691085,Munnsville
0.9492,1098.5,METERS,GHCND_USW00023047,35.2295,-101.7042,10/16/2018,3/1/1943,"AMARILLO AIRPORT, TX US",3.697685178,17,-101.5256253,35.40332619,0.249207664,Majestic
0.9952,894.9,METERS,GHCND_USC00418040,35.7048,-101.5492,10/17/2018,10/1/1993,"SANFORD DAM, TX US",3.697685178,17,-101.5256253,35.40332619,0.302394154,Majestic
0.9936,930.9,METERS,GHCND_USW00003024,35.695,-101.395,10/16/2018,6/1/1997,"BORGER HUTCHINSON CO AIRPORT, TX US",3.697685178,17,-101.5256253,35.40332619,0.319588152,Majestic
0.9922,905.6,METERS,GHCND_USW00094055,46.3583,-104.25,10/16/2018,2/19/1998,"BAKER MUNICIPAL AIRPORT, MT US",4.437222213,18,-104.1687011,46.27119588,0.119149636,Diamond Willow extension
0.996,915.6,METERS,GHCND_USW00094037,45.60444,-103.54639,10/16/2018,4/16/1998,"BUFFALO ASOS, SD US",4.437222213,18,-104.1687011,46.27119588,0.912049633,Diamond Willow extension
0.9577,685.2,METERS,GHCND_USC00248165,46.7938,-105.3021,10/17/2018,5/1/1949,"TERRY, MT US",4.437222213,18,-104.1687011,46.27119588,1.248081761,Diamond Willow extension
0.7743,807.4,METERS,GHCND_USC00243113,47.8305,-110.6609,10/17/2018,1894-12-01,"FORT BENTON, MT US",2.139864108,14,-110.6359422,47.33967712,0.491457011,Spion Kop
0.4638,1058.3,METERS,GHCND_USW00024112,47.51667,-111.18333,6/8/2014,1/1/1949,"MALMSTROM AFB, MT US",2.139864108,14,-110.6359422,47.33967712,0.575291167,Spion Kop
0.8339,1100.3,METERS,GHCND_USC00242347,47.3181,-109.9372,12/31/2014,2/1/1908,"DENTON, MT US",2.139864108,14,-110.6359422,47.33967712,0.699075231,Spion Kop
0.9932,497.4,METERS,GHCND_USC00391076,44.3252,-96.7686,10/16/2018,1893-01-01,"BROOKINGS 2 NE, SD US",2.567836929,15,-96.055816,44.06682435,0.758168191,Moraine Wind Power project
0.9974,347.5,METERS,GHCND_USC00214546,44.2395,-95.3152,10/2/2018,1/1/1961,"LAMBERTON SOUTHWEST RESEARCH AND OUTREACH CENTER, MN US",2.567836929,15,-96.055816,44.06682435,0.760479414,Moraine Wind Power project
0.9561,435.9,METERS,GHCND_USC00397666,43.5877,-96.73,10/17/2018,1/1/2011,"SIOUX FALLS WEATHER FORECAST OFFICE AIRPORT, SD US",2.567836929,15,-96.055816,44.06682435,0.827093835,Moraine Wind Power project
0.9986,335,METERS,GHCND_USC00130200,42.0208,-93.7741,10/10/2018,11/1/1964,"AMES 8 WSW, IA US",3.081404315,16,-93.6255845,42.56312125,0.562289242,Century expansion (08)
0.9965,291.1,METERS,GHCND_USW00094989,41.99056,-93.61889,10/16/2018,10/1/1996,"AMES MUNICIPAL AIRPORT, IA US",3.081404315,16,-93.6255845,42.56312125,0.572600385,Century expansion (08)
0.9999,373.4,METERS,GHCND_USW00014940,43.1544,-93.3269,10/16/2018,1/1/1948,"MASON CITY MUNICIPAL AIRPORT, IA US",3.081404315,16,-93.6255845,42.56312125,0.66243716,Century expansion (08)
0.9922,905.6,METERS,GHCND_USW00094055,46.3583,-104.25,10/16/2018,2/19/1998,"BAKER MUNICIPAL AIRPORT, MT US",3.697685178,17,-103.7681122,46.24452346,0.495137352,Cedar Hills
0.996,915.6,METERS,GHCND_USW00094037,45.60444,-103.54639,10/16/2018,4/16/1998,"BUFFALO ASOS, SD US",3.697685178,17,-103.7681122,46.24452346,0.677397632,Cedar Hills
0.8793,786.4,METERS,GHCND_USW00024012,46.7994,-102.7972,10/16/2018,11/14/1938,"DICKINSON THEODORE ROOSEVELT REGIONAL AIRPORT, ND US",3.697685178,17,-103.7681122,46.24452346,1.118283678,Cedar Hills
0.9985,1749.9,METERS,GHCND_USW00023070,37.26222,-104.33778,10/16/2018,1/1/1948,"TRINIDAD PERRY STOKES AIRPORT, CO US",2.139864108,14,-104.5069511,37.67332544,0.444552068,Peak View Wind
0.9943,1923.3,METERS,GHCND_USC00058436,37.1502,-104.5568,10/17/2018,2/1/1989,"TRINIDAD LAKE, CO US",2.139864108,14,-104.5069511,37.67332544,0.525495139,Peak View Wind
0.846,1438.7,METERS,GHCND_USW00093058,38.2901,-104.4983,10/16/2018,10/1/1942,"PUEBLO MEMORIAL AIRPORT, CO US",2.139864108,14,-104.5069511,37.67332544,0.616835227,Peak View Wind
1,125.9,METERS,GHCND_USW00014771,43.1111,-76.1038,10/16/2018,5/1/1938,"SYRACUSE HANCOCK INTERNATIONAL AIRPORT, NY US",1.78322009,13,-75.76067953,42.98913153,0.36415377,Fenner Wind Power Project
0.997,216.7,METERS,GHCND_USW00094794,43.145,-75.38389,1/17/2007,12/1/1950,"UTICA ONEIDA CO AIRPORT, NY US",1.78322009,13,-75.76067953,42.98913153,0.407756457,Fenner Wind Power Project
0.9988,158.2,METERS,GHCND_USW00064775,43.23389,-75.41167,10/15/2018,5/28/2007,"ROME GRIFFISS AIRFIELD, NY US",1.78322009,13,-75.76067953,42.98913153,0.426279673,Fenner Wind Power Project
0.9922,905.6,METERS,GHCND_USW00094055,46.3583,-104.25,10/16/2018,2/19/1998,"BAKER MUNICIPAL AIRPORT, MT US",4.437222213,18,-104.1823966,46.27565142,0.106775513,Diamond Willow Wind (08)
0.996,915.6,METERS,GHCND_USW00094037,45.60444,-103.54639,10/16/2018,4/16/1998,"BUFFALO ASOS, SD US",4.437222213,18,-104.1823966,46.27565142,0.924677857,Diamond Willow Wind (08)
0.9577,685.2,METERS,GHCND_USC00248165,46.7938,-105.3021,10/17/2018,5/1/1949,"TERRY, MT US",4.437222213,18,-104.1823966,46.27565142,1.233780246,Diamond Willow Wind (08)
0.9928,1143,METERS,GHCND_USC00246700,47.6544,-111.598,5/31/2014,2/13/1953,"POWER 6 SE, MT US",1.78322009,13,-111.9184998,47.71757592,0.326666955,Greenfield Wind Farm
0.9151,1240.5,METERS,GHCND_USC00240364,47.4926,-112.397,11/30/2014,1896-06-20,"AUGUSTA, MT US",1.78322009,13,-111.9184998,47.71757592,0.52875007,Greenfield Wind Farm
1,1116.8,METERS,GHCND_USW00024143,47.4733,-111.3822,10/16/2018,4/1/1937,"GREAT FALLS AIRPORT, MT US",1.78322009,13,-111.9184998,47.71757592,0.589311606,Greenfield Wind Farm
0.984,1415.2,METERS,GHCND_USW00024150,45.6983,-110.4408,10/16/2018,7/1/1948,"LIVINGSTON AIRPORT, MT US",3.697685178,17,-109.6524185,45.83571929,0.800268361,Big Timber
0.99,1706.9,METERS,GHCND_USC00244954,46.3615,-110.5998,8/31/2018,7/25/1959,"LENNEP 5 SW, MT US",3.697685178,17,-109.6524185,45.83571929,1.083502222,Big Timber
0.8482,1091.5,METERS,GHCND_USW00024033,45.8069,-108.5422,10/16/2018,5/1/1935,"BILLINGS INTERNATIONAL AIRPORT, MT US",3.697685178,17,-109.6524185,45.83571929,1.110592486,Big Timber
0.979,1297.2,METERS,GHCND_USC00052947,40.6483,-102.8594,9/30/2018,4/1/1998,"FLEMING 3 SW, CO US",1.78322009,13,-102.7920195,40.73160021,0.107140363,Colorado Highlands (2013)
0.9988,1130.5,METERS,GHCND_USC00051996,40.86,-102.803,10/17/2018,3/1/1996,"CROOK, CO US",1.78322009,13,-102.7920195,40.73160021,0.128868446,Colorado Highlands (2013)
0.8607,1309.4,METERS,GHCND_USW00024030,41.0993,-102.9863,10/16/2018,1/1/1948,"SIDNEY MUNICIPAL AIRPORT, NE US",1.78322009,13,-102.7920195,40.73160021,0.415870226,Colorado Highlands (2013)
0.6654,833.6,METERS,GHCND_USC00045756,35.0492,-118.1619,10/17/2018,1/1/1904,"MOJAVE, CA US",1.486016741,12,-118.376557,35.08738367,0.21802667,Alta XI
0.9921,712.6,METERS,GHCND_USW00003159,34.7411,-118.2116,10/16/2018,4/16/1974,"LANCASTER, CA US",1.486016741,12,-118.376557,35.08738367,0.383566417,Alta XI
0.981,1374.6,METERS,GHCND_USW00023187,34.7436,-118.7242,10/16/2018,1/1/1948,"SANDBERG, CA US",1.486016741,12,-118.376557,35.08738367,0.488920086,Alta XI
0.8315,474.9,METERS,GHCND_USC00322482,46.3694,-98.7661,8/31/2018,5/7/1901,"EDGELEY 3 WNW, ND US",2.567836929,15,-98.88654619,46.32244026,0.129276838,North Dakota Wind I
0.9998,455.4,METERS,GHCND_USW00014919,46.9258,-98.6691,10/16/2018,7/1/1948,"JAMESTOWN MUNICIPAL AIRPORT, ND US",2.567836929,15,-98.88654619,46.32244026,0.64134688,North Dakota Wind I
0.7968,559.3,METERS,GHCND_USC00397277,45.4526,-99.3358,10/17/2018,12/1/1934,"ROSCOE, SD US",2.567836929,15,-98.88654619,46.32244026,0.979005141,North Dakota Wind I
0.6654,833.6,METERS,GHCND_USC00045756,35.0492,-118.1619,10/17/2018,1/1/1904,"MOJAVE, CA US",1.78322009,13,-118.1939584,35.2559655,0.209236022,Pine Tree extension
0.7252,695.9,METERS,GHCND_USW00053144,34.98833,-117.86472,11/27/2016,5/1/2006,"EDWARDS AFB NORTH AUXILIARY AIRFIELD, CA US",1.78322009,13,-118.1939584,35.2559655,0.424295516,Pine Tree extension
0.9921,712.6,METERS,GHCND_USW00003159,34.7411,-118.2116,10/16/2018,4/16/1974,"LANCASTER, CA US",1.78322009,13,-118.1939584,35.2559655,0.515167651,Pine Tree extension
0.9947,24.7,METERS,GHCND_USW00014794,41.34972,-71.79889,10/15/2018,7/27/1999,"WESTERLY STATE AIRPORT, RI US",1.78322009,13,-71.5218874,41.1153922,0.362822213,Block Island
0.9578,35.7,METERS,GHCND_USC00374266,41.4903,-71.543,9/30/2018,1893-01-01,"KINGSTON, RI US",1.78322009,13,-71.5218874,41.1153922,0.375501798,Block Island
0.9746,2.1,METERS,GHCND_USW00054780,41.07306,-71.92333,10/15/2018,11/1/1998,"MONTAUK AIRPORT, NY US",1.78322009,13,-71.5218874,41.1153922,0.403668399,Block Island
0.9943,407.8,METERS,GHCND_USW00014972,43.16444,-95.20167,10/15/2018,10/1/1996,"SPENCER MUNICIPAL AIRPORT, IA US",3.081404315,16,-95.4138705,43.59587783,0.480798977,South Fork
0.9974,347.5,METERS,GHCND_USC00214546,44.2395,-95.3152,10/2/2018,1/1/1961,"LAMBERTON SOUTHWEST RESEARCH AND OUTREACH CENTER, MN US",3.081404315,16,-95.4138705,43.59587783,0.651141583,South Fork
0.9939,401.4,METERS,GHCND_USW00094971,43.40111,-94.74722,10/16/2018,7/1/1996,"ESTHERVILLE MUNICIPAL AIRPORT, IA US",3.081404315,16,-95.4138705,43.59587783,0.694519545,South Fork
1,189,METERS,GHCND_USC00178792,45.4353,-67.7213,10/17/2018,12/1/2004,"TOPSFIELD 2, ME US",2.567836929,15,-67.97871016,45.52562287,0.272797012,Stetson
0.9631,145.1,METERS,GHCND_USW00014609,46.1185,-67.7928,10/16/2018,6/1/1948,"HOULTON AIRPORT, ME US",2.567836929,15,-67.97871016,45.52562287,0.621341999,Stetson
0.5587,123.7,METERS,GHCND_USW00014610,45.6477,-68.6925,10/16/2018,12/1/1944,"MILLINOCKET MUNICIPAL AIRPORT, ME US",2.567836929,15,-67.97871016,45.52562287,0.724153827,Stetson
0.8911,1620.9,METERS,GHCND_USW00024089,42.89779,-106.47371,10/16/2018,1/1/1940,"CASPER NATRONA CO AIRPORT, WY US",3.081404315,16,-106.2186979,42.887266,0.255229154,Casper Wind Farm
0.808,1805.3,METERS,GHCND_USC00487105,42.47165,-106.85268,8/31/2018,10/1/1905,"PATHFINDER DAM, WY US",3.081404315,16,-106.2186979,42.887266,0.758069885,Casper Wind Farm
0.999,1504.5,METERS,GHCND_USW00094057,42.79611,-105.38028,10/16/2018,7/1/1999,"CONVERSE CO AIRPORT ASOS, WY US",3.081404315,16,-106.2186979,42.887266,0.843358765,Casper Wind Farm
0.9939,283.5,METERS,GHCND_USW00014777,41.3336,-75.7269,10/16/2018,1/1/1949,"WILKES BARRE SCRANTON INTERNATIONAL AIRPORT, PA US",1.78322009,13,-75.4367394,41.59685728,0.391787661,Waymart Wind Farm
0.9981,584,METERS,GHCND_USW00054789,41.13889,-75.37944,10/16/2018,10/1/1999,"MOUNT POCONO POCONO MOUNTAINS MUNICIPAL AIRPORT, PA US",1.78322009,13,-75.4367394,41.59685728,0.461537918,Waymart Wind Farm
0.8975,459.9,METERS,GHCND_USC00363018,41.1184,-75.7277,10/16/2018,10/1/1963,"FRANCIS E WALTER DAM, PA US",1.78322009,13,-75.4367394,41.59685728,0.559981644,Waymart Wind Farm
0.7574,195.1,METERS,GHCND_USW00054768,42.69728,-73.16967,10/16/2018,10/1/1987,"NORTH ADAMS HARRIMAN AIRPORT, MA US",1.486016741,12,-73.03268763,42.72293611,0.139364289,Hoosac
0.8409,338.3,METERS,GHCND_USC00436500,42.79167,-73.22278,7/20/2013,1/11/1975,"POWNAL 1 NE, VT US",1.486016741,12,-73.03268763,42.72293611,0.202137223,Hoosac
0.9979,251.8,METERS,GHCND_USW00054781,42.89139,-73.24694,10/16/2018,12/5/1998,"BENNINGTON MORSE STATE AIRPORT, VT US",1.486016741,12,-73.03268763,42.72293611,0.272545028,Hoosac
0.6654,833.6,METERS,GHCND_USC00045756,35.0492,-118.1619,10/17/2018,1/1/1904,"MOJAVE, CA US",1.486016741,12,-118.3431211,35.06267929,0.181721748,Coram Energy LLC
0.9921,712.6,METERS,GHCND_USW00003159,34.7411,-118.2116,10/16/2018,4/16/1974,"LANCASTER, CA US",1.486016741,12,-118.3431211,35.06267929,0.347434955,Coram Energy LLC
0.7252,695.9,METERS,GHCND_USW00053144,34.98833,-117.86472,11/27/2016,5/1/2006,"EDWARDS AFB NORTH AUXILIARY AIRFIELD, CA US",1.486016741,12,-118.3431211,35.06267929,0.484144059,Coram Energy LLC
0.8607,1309.4,METERS,GHCND_USW00024030,41.0993,-102.9863,10/16/2018,1/1/1948,"SIDNEY MUNICIPAL AIRPORT, NE US",2.139864108,14,-102.9220357,40.98843947,0.128140401,Northeast Colorado Wind
0.9988,1130.5,METERS,GHCND_USC00051996,40.86,-102.803,10/17/2018,3/1/1996,"CROOK, CO US",2.139864108,14,-102.9220357,40.98843947,0.175117636,Northeast Colorado Wind
0.9565,1316.7,METERS,GHCND_USC00257830,41.2294,-103.0214,9/30/2018,12/1/1908,"SIDNEY 6 NNW, NE US",2.139864108,14,-102.9220357,40.98843947,0.260643913,Northeast Colorado Wind
0.8315,474.9,METERS,GHCND_USC00322482,46.3694,-98.7661,8/31/2018,5/7/1901,"EDGELEY 3 WNW, ND US",2.567836929,15,-98.88572593,46.31877107,0.129898619,North Dakota Wind II
0.9998,455.4,METERS,GHCND_USW00014919,46.9258,-98.6691,10/16/2018,7/1/1948,"JAMESTOWN MUNICIPAL AIRPORT, ND US",2.567836929,15,-98.88572593,46.31877107,0.644523788,North Dakota Wind II
0.7968,559.3,METERS,GHCND_USC00397277,45.4526,-99.3358,10/17/2018,12/1/1934,"ROSCOE, SD US",2.567836929,15,-98.88572593,46.31877107,0.976124477,North Dakota Wind II
0.3575,208.8,METERS,GHCND_USW00094704,42.57083,-77.71333,10/15/2018,11/1/1945,"DANSVILLE MUNICIPAL AIRPORT, NY US",1.78322009,13,-77.5045769,42.1773228,0.445450079,Marsh Hill
0.996,647.4,METERS,GHCND_USW00054757,42.10944,-77.99194,10/15/2018,2/2/2000,"WELLSVILLE MUNICIPAL AIRPORT, NY US",1.78322009,13,-77.5045769,42.1773228,0.492067948,Marsh Hill
0.4585,291.1,METERS,GHCND_USW00014748,42.15944,-76.89194,10/15/2018,7/1/1938,"ELMIRA CORNING REGIONAL AIRPORT, NY US",1.78322009,13,-77.5045769,42.1773228,0.612897843,Marsh Hill
0.9952,124.7,METERS,GHCND_USW00093138,33.8222,-116.5043,10/16/2018,2/19/1998,"PALM SPRINGS ASOS, CA US",1.486016741,12,-116.6210045,33.92611722,0.156264904,Whitewater Hill
0.988,1050,METERS,GHCND_USC00049884,34.2182,-116.4073,9/23/2018,1/1/2011,"YUCCA MESA, CA US",1.486016741,12,-116.6210045,33.92611722,0.361914283,Whitewater Hill
0.989,789.7,METERS,GHCND_USW00023156,33.9255,-116.9903,7/31/2001,8/1/1939,"BEAUMONT NUMBER 2, CA US",1.486016741,12,-116.6210045,33.92611722,0.369296052,Whitewater Hill
0.9651,455.7,METERS,GHCND_USC00188065,39.5099,-79.1401,10/17/2018,2/26/1945,"SAVAGE RIVER DAM, MD US",2.139864108,14,-79.00325695,39.7893668,0.311171516,Meyersdale
0.9978,454.2,METERS,GHCND_USC00361705,39.7994,-79.3665,10/17/2018,7/1/1946,"CONFLUENCE 1 SW DAM, PA US",2.139864108,14,-79.00325695,39.7893668,0.363381588,Meyersdale
1,294.1,METERS,GHCND_USC00464840,39.42127,-79.00513,10/17/2018,1/1/1996,"KEYSER 2 SSW, WV US",2.139864108,14,-79.00325695,39.7893668,0.368101565,Meyersdale
0.9098,178.6,METERS,GHCND_USC00202423,44.2838,-83.5036,10/17/2018,1890-04-01,"EAST TAWAS, MI US",2.567836929,15,-83.25702578,43.87495456,0.477444703,McKinley Wind Park
0.9637,179.8,METERS,GHCND_USW00094898,44.02194,-82.79306,10/15/2018,6/24/1999,"PORT HOPE, MI US",2.567836929,15,-83.25702578,43.87495456,0.486691857,McKinley Wind Park
0.8035,256.6,METERS,GHCND_USC00203527,44.3127,-83.8272,9/30/2009,2/1/2002,"HALE 5 SSW, MI US",2.567836929,15,-83.25702578,43.87495456,0.71883219,McKinley Wind Park
0.988,519.1,METERS,GHCND_USW00094943,43.76667,-99.31833,6/30/2014,2/1/1998,"CHAMBERLAIN MUNICIPAL AIRPORT, SD US",2.567836929,15,-98.83093371,43.92475014,0.512390936,South Dakota Wind Partners
0.8893,445.3,METERS,GHCND_USC00394766,44.0644,-99.4602,10/2/2018,2/1/1972,"LAKE SHARPE PROJECT, SD US",2.567836929,15,-98.83093371,43.92475014,0.644575939,South Dakota Wind Partners
0.9998,390.1,METERS,GHCND_USW00014936,44.3981,-98.2231,10/16/2018,1881-07-01,"HURON REGIONAL AIRPORT, SD US",2.567836929,15,-98.83093371,43.92475014,0.770403733,South Dakota Wind Partners
0.9914,539.2,METERS,GHCND_USC00325993,48.1802,-101.2963,10/17/2018,6/10/1905,"MINOT EXPERIMENT STATION, ND US",1.486016741,12,-101.2912167,47.98826467,0.192002637,Prairie Winds Minot Wind 2
0.9808,507.5,METERS,GHCND_USW00024013,48.2552,-101.2733,10/16/2018,7/2/1948,"MINOT INTERNATIONAL AIRPORT, ND US",1.486016741,12,-101.2912167,47.98826467,0.26753594,Prairie Winds Minot Wind 2
0.9992,582.2,METERS,GHCND_USW00094041,47.64583,-101.43944,10/15/2018,5/21/1998,"GARRISON, ND US",1.486016741,12,-101.2912167,47.98826467,0.373137585,Prairie Winds Minot Wind 2
1,189,METERS,GHCND_USC00178792,45.4353,-67.7213,10/17/2018,12/1/2004,"TOPSFIELD 2, ME US",2.567836929,15,-67.97098894,45.61497282,0.307614842,Stetson Wind expansion
0.9631,145.1,METERS,GHCND_USW00014609,46.1185,-67.7928,10/16/2018,6/1/1948,"HOULTON AIRPORT, ME US",2.567836929,15,-67.97098894,45.61497282,0.534126311,Stetson Wind expansion
0.5587,123.7,METERS,GHCND_USW00014610,45.6477,-68.6925,10/16/2018,12/1/1944,"MILLINOCKET MUNICIPAL AIRPORT, ME US",2.567836929,15,-67.97098894,45.61497282,0.722252917,Stetson Wind expansion
0.9988,1266.1,METERS,GHCND_USW00024133,42.5416,-113.7661,10/16/2018,8/2/1948,"BURLEY MUNICIPAL AIRPORT, ID US",1.78322009,13,-113.9158393,42.43848175,0.181810936,Golden Valley
0.9927,1207,METERS,GHCND_USC00109303,42.5458,-114.3461,10/31/2012,4/13/1963,"TWIN FALLS, ID US",1.78322009,13,-113.9158393,42.43848175,0.443442803,Golden Valley
0.9688,1269.2,METERS,GHCND_USC00105980,42.6769,-113.5021,10/6/2018,5/2/1947,"MINIDOKA DAM, ID US",1.78322009,13,-113.9158393,42.43848175,0.477517988,Golden Valley
0.9812,1140,METERS,GHCND_USC00104670,42.7325,-114.5192,9/20/2018,9/1/1915,"JEROME, ID US",2.567836929,15,-114.9985504,42.763209,0.480333017,Yahoo Creek
0.9754,1233.8,METERS,GHCND_USW00004110,42.72667,-114.45639,10/16/2018,2/11/1997,"JEROME CO AIRPORT, ID US",2.567836929,15,-114.9985504,42.763209,0.543390239,Yahoo Creek
0.9933,1265.2,METERS,GHCND_USW00094178,42.48194,-114.48694,10/16/2018,6/8/1997,"TWIN FALLS SUN VALLEY REGIONAL AIRPORT, ID US",2.567836929,15,-114.9985504,42.763209,0.583829948,Yahoo Creek
0.9978,454.2,METERS,GHCND_USC00361705,39.7994,-79.3665,10/17/2018,7/1/1946,"CONFLUENCE 1 SW DAM, PA US",1.78322009,13,-79.19253336,39.74010471,0.183794243,Ringer Hill
0.9651,455.7,METERS,GHCND_USC00188065,39.5099,-79.1401,10/17/2018,2/26/1945,"SAVAGE RIVER DAM, MD US",1.78322009,13,-79.19253336,39.74010471,0.236100545,Ringer Hill
1,294.1,METERS,GHCND_USC00464840,39.42127,-79.00513,10/17/2018,1/1/1996,"KEYSER 2 SSW, WV US",1.78322009,13,-79.19253336,39.74010471,0.369831845,Ringer Hill
0.2946,913.2,METERS,GHCND_USW00024106,43.05,-115.86667,10/16/2018,5/1/1949,"MOUNTAIN HOME AFB, ID US",2.567836929,15,-115.3943155,42.98188707,0.477240133,Sawtooth
0.9501,2310.4,METERS,GHCND_USS0015F04S,43.76,-115.24,10/16/2018,9/30/1978,"ATLANTA SUMMIT, ID US",2.567836929,15,-115.3943155,42.98188707,0.793267296,Sawtooth
0.9602,986,METERS,GHCND_USC00100448,43.5936,-115.9237,10/31/2009,11/1/1911,"ARROWROCK DAM, ID US",2.567836929,15,-115.3943155,42.98188707,0.808975065,Sawtooth
0.9899,387.1,METERS,GHCND_USC00133632,41.6452,-95.3339,2/24/2016,1899-02-01,"HARLAN, IA US",2.567836929,15,-95.03857008,42.12524015,0.563611846,Victory
0.9907,426.7,METERS,GHCND_USC00131277,42.0633,-95.8363,1/16/2018,7/1/1948,"CASTANA EXPERIMENTAL FARM, IA US",2.567836929,15,-95.03857008,42.12524015,0.800130997,Victory
0.9937,368.8,METERS,GHCND_USC00131442,42.7572,-95.5377,10/17/2018,11/13/1921,"CHEROKEE, IA US",2.567836929,15,-95.03857008,42.12524015,0.805297415,Victory
0.9812,1140,METERS,GHCND_USC00104670,42.7325,-114.5192,9/20/2018,9/1/1915,"JEROME, ID US",2.567836929,15,-115.057775,42.8162008,0.545040232,Camp Reed
0.9754,1233.8,METERS,GHCND_USW00004110,42.72667,-114.45639,10/16/2018,2/11/1997,"JEROME CO AIRPORT, ID US",2.567836929,15,-115.057775,42.8162008,0.608012897,Camp Reed
0.9933,1265.2,METERS,GHCND_USW00094178,42.48194,-114.48694,10/16/2018,6/8/1997,"TWIN FALLS SUN VALLEY REGIONAL AIRPORT, ID US",2.567836929,15,-115.057775,42.8162008,0.661500476,Camp Reed
0.9928,1143,METERS,GHCND_USC00246700,47.6544,-111.598,5/31/2014,2/13/1953,"POWER 6 SE, MT US",1.78322009,13,-111.9555283,47.7129535,0.362291349,Fairfield Wind Farm
0.9151,1240.5,METERS,GHCND_USC00240364,47.4926,-112.397,11/30/2014,1896-06-20,"AUGUSTA, MT US",1.78322009,13,-111.9555283,47.7129535,0.493409462,Fairfield Wind Farm
1,1116.8,METERS,GHCND_USW00024143,47.4733,-111.3822,10/16/2018,4/1/1937,"GREAT FALLS AIRPORT, MT US",1.78322009,13,-111.9555283,47.7129535,0.62140098,Fairfield Wind Farm
0.996,214.9,METERS,GHCND_USC00173570,44.3744,-70.3163,10/17/2018,5/1/1998,"HARTFORD, ME US",2.139864108,14,-70.37101633,44.61131125,0.243147728,Saddleback Ridge
0.9955,542.5,METERS,GHCND_USC00177039,44.9894,-70.6722,10/17/2018,8/1/1997,"RANGELEY 2 NW, ME US",2.139864108,14,-70.37101633,44.61131125,0.483386702,Saddleback Ridge
1,107,METERS,GHCND_USW00014605,44.3155,-69.7972,10/16/2018,6/1/1948,"AUGUSTA STATE AIRPORT, ME US",2.139864108,14,-70.37101633,44.61131125,0.645576858,Saddleback Ridge
0.9812,1140,METERS,GHCND_USC00104670,42.7325,-114.5192,9/20/2018,9/1/1915,"JEROME, ID US",2.567836929,15,-114.9989121,42.6899725,0.48159353,Salmon Falls
0.9754,1233.8,METERS,GHCND_USW00004110,42.72667,-114.45639,10/16/2018,2/11/1997,"JEROME CO AIRPORT, ID US",2.567836929,15,-114.9989121,42.6899725,0.54376188,Salmon Falls
0.9933,1265.2,METERS,GHCND_USW00094178,42.48194,-114.48694,10/16/2018,6/8/1997,"TWIN FALLS SUN VALLEY REGIONAL AIRPORT, ID US",2.567836929,15,-114.9989121,42.6899725,0.552623738,Salmon Falls
0.9932,668.4,METERS,GHCND_USW00024162,44.0206,-117.0128,10/16/2018,7/10/1997,"ONTARIO, OR US",2.139864108,14,-117.3211626,44.3527526,0.453224936,Durbin Creek
0.9743,688.8,METERS,GHCND_USC00355160,43.9794,-117.0247,10/17/2018,7/1/1942,"MALHEUR BRANCH EXPERIMENT STATION, OR US",2.139864108,14,-117.3211626,44.3527526,0.476741269,Durbin Creek
0.9361,698,METERS,GHCND_USC00106844,43.8023,-116.9442,12/29/2017,11/7/1922,"PARMA EXPERIMENT STATION, ID US",2.139864108,14,-117.3211626,44.3527526,0.667157303,Durbin Creek
0.9932,668.4,METERS,GHCND_USW00024162,44.0206,-117.0128,10/16/2018,7/10/1997,"ONTARIO, OR US",2.139864108,14,-117.2741058,44.4184318,0.475973594,Benson Creek
0.9743,688.8,METERS,GHCND_USC00355160,43.9794,-117.0247,10/17/2018,7/1/1942,"MALHEUR BRANCH EXPERIMENT STATION, OR US",2.139864108,14,-117.2741058,44.4184318,0.50492789,Benson Creek
0.9988,1024.4,METERS,GHCND_USW00024130,44.8428,-117.8086,10/16/2018,5/1/1943,"BAKER CITY AIRPORT, OR US",2.139864108,14,-117.2741058,44.4184318,0.682475215,Benson Creek
0.9986,335,METERS,GHCND_USC00130200,42.0208,-93.7741,10/10/2018,11/1/1964,"AMES 8 WSW, IA US",3.081404315,16,-94.2690324,42.098493,0.500993296,Junction Hilltop Wind
0.9965,291.1,METERS,GHCND_USW00094989,41.99056,-93.61889,10/16/2018,10/1/1996,"AMES MUNICIPAL AIRPORT, IA US",3.081404315,16,-94.2690324,42.098493,0.659040722,Junction Hilltop Wind
0.8955,406.6,METERS,GHCND_USC00133438,41.298,-94.4561,10/16/2018,1893-01-01,"GREENFIELD, IA US",3.081404315,16,-94.2690324,42.098493,0.822060417,Junction Hilltop Wind
0.9939,401.4,METERS,GHCND_USW00094971,43.40111,-94.74722,10/16/2018,7/1/1996,"ESTHERVILLE MUNICIPAL AIRPORT, IA US",3.697685178,17,-94.135837,43.37645829,0.611879792,Iowa Lakes Lakota Wind
0.9999,373.4,METERS,GHCND_USW00014940,43.1544,-93.3269,10/16/2018,1/1/1948,"MASON CITY MUNICIPAL AIRPORT, IA US",3.697685178,17,-94.135837,43.37645829,0.8388617,Iowa Lakes Lakota Wind
0.9941,351.4,METERS,GHCND_USC00218692,44.0707,-93.5264,10/4/2018,1/2/1915,"WASECA SOUTHERN RESEARCH AND OUTREACH CENTER, MN US",3.697685178,17,-94.135837,43.37645829,0.923788404,Iowa Lakes Lakota Wind
1,472.7,METERS,GHCND_USW00014941,41.9855,-97.4352,10/16/2018,10/1/1945,"NORFOLK KARL STEFAN MEMORIAL AIRPORT, NE US",2.139864108,14,-97.40349033,41.677526,0.309602144,Creston Ridge Expansion
0.5342,463.3,METERS,GHCND_USC00254035,41.7175,-97.003,7/25/2018,10/1/1934,"HOWELLS, NE US",2.139864108,14,-97.40349033,41.677526,0.402480345,Creston Ridge Expansion
0.9084,502.9,METERS,GHCND_USC00253075,41.3594,-97.9761,11/30/2013,3/1/1901,"FULLERTON, NE US",2.139864108,14,-97.40349033,41.677526,0.65504655,Creston Ridge Expansion
0.9932,668.4,METERS,GHCND_USW00024162,44.0206,-117.0128,10/16/2018,7/10/1997,"ONTARIO, OR US",2.139864108,14,-117.2682754,44.425554,0.478806247,Jett Creek
0.9743,688.8,METERS,GHCND_USC00355160,43.9794,-117.0247,10/17/2018,7/1/1942,"MALHEUR BRANCH EXPERIMENT STATION, OR US",2.139864108,14,-117.2682754,44.425554,0.508313257,Jett Creek
0.9988,1024.4,METERS,GHCND_USW00024130,44.8428,-117.8086,10/16/2018,5/1/1943,"BAKER CITY AIRPORT, OR US",2.139864108,14,-117.2682754,44.425554,0.682674811,Jett Creek
0.9952,894.9,METERS,GHCND_USC00418040,35.7048,-101.5492,10/17/2018,10/1/1993,"SANFORD DAM, TX US",2.139864108,14,-101.8803405,35.93209467,0.401642747,Sunray I
0.9936,930.9,METERS,GHCND_USW00003024,35.695,-101.395,10/16/2018,6/1/1997,"BORGER HUTCHINSON CO AIRPORT, TX US",2.139864108,14,-101.8803405,35.93209467,0.54015672,Sunray I
0.9979,1216.2,METERS,GHCND_USW00093042,36.0167,-102.55,10/16/2018,12/10/1948,"DALHART FAA AIRPORT, TX US",2.139864108,14,-101.8803405,35.93209467,0.674982895,Sunray I
0.9857,70.1,METERS,GHCND_USC00518543,20.8571,-156.4313,10/31/2016,10/1/1949,"PUUNENE 396, HI US",2.139864108,14,-156.5505203,20.81414695,0.126721918,Kaheawa (Maalaea)
0.7094,15.5,METERS,GHCND_USW00022516,20.89972,-156.42861,10/16/2018,1/1/1905,"KAHULUI AIRPORT, HI US",2.139864108,14,-156.5505203,20.81414695,0.148945856,Kaheawa (Maalaea)
0.967,106.7,METERS,GHCND_USC00516645,21.0249,-156.6013,9/30/2012,10/1/1949,"NAKALELE FIELD 60 49, HI US",2.139864108,14,-156.5505203,20.81414695,0.216784285,Kaheawa (Maalaea)
0.9939,401.4,METERS,GHCND_USW00094971,43.40111,-94.74722,10/16/2018,7/1/1996,"ESTHERVILLE MUNICIPAL AIRPORT, IA US",3.697685178,17,-94.98053529,43.44596371,0.237587622,Iowa Lakes Superior Wind
0.9943,407.8,METERS,GHCND_USW00014972,43.16444,-95.20167,10/15/2018,10/1/1996,"SPENCER MUNICIPAL AIRPORT, IA US",3.697685178,17,-94.98053529,43.44596371,0.357989055,Iowa Lakes Superior Wind
0.9974,347.5,METERS,GHCND_USC00214546,44.2395,-95.3152,10/2/2018,1/1/1961,"LAMBERTON SOUTHWEST RESEARCH AND OUTREACH CENTER, MN US",3.697685178,17,-94.98053529,43.44596371,0.861220243,Iowa Lakes Superior Wind
0.8179,397.5,METERS,GHCND_USW00014925,43.9041,-92.4916,10/16/2018,1893-01-01,"ROCHESTER INTERNATIONAL AIRPORT, MN US",3.081404315,16,-92.722991,43.55362867,0.419966606,G. McNeilus Wind Farm
0.9999,373.4,METERS,GHCND_USW00014940,43.1544,-93.3269,10/16/2018,1/1/1948,"MASON CITY MUNICIPAL AIRPORT, IA US",3.081404315,16,-92.722991,43.55362867,0.723940335,G. McNeilus Wind Farm
0.9941,351.4,METERS,GHCND_USC00218692,44.0707,-93.5264,10/4/2018,1/2/1915,"WASECA SOUTHERN RESEARCH AND OUTREACH CENTER, MN US",3.081404315,16,-92.722991,43.55362867,0.955420737,G. McNeilus Wind Farm
0.9456,24.4,METERS,GHCND_USW00025501,57.75111,-152.48556,10/16/2018,1/1/1945,"KODIAK AIRPORT, AK US",9.201023982,22,-152.4551443,57.78459933,0.045239896,Pillar Mountain II
0.9873,8.8,METERS,GHCND_USW00025516,59.44333,-151.70167,10/15/2018,6/1/1997,"SELDOVIA AIRPORT, AK US",9.201023982,22,-152.4551443,57.78459933,1.821842747,Pillar Mountain II
0.9694,19.5,METERS,GHCND_USW00025507,59.642,-151.4908,10/16/2018,9/1/1932,"HOMER AIRPORT, AK US",9.201023982,22,-152.4551443,57.78459933,2.092820401,Pillar Mountain II
0.9857,70.1,METERS,GHCND_USC00518543,20.8571,-156.4313,10/31/2016,10/1/1949,"PUUNENE 396, HI US",2.139864108,14,-156.5358276,20.79466143,0.121756266,Kaheawa Wind II
0.7094,15.5,METERS,GHCND_USW00022516,20.89972,-156.42861,10/16/2018,1/1/1905,"KAHULUI AIRPORT, HI US",2.139864108,14,-156.5358276,20.79466143,0.150109663,Kaheawa Wind II
0.967,106.7,METERS,GHCND_USC00516645,21.0249,-156.6013,9/30/2012,10/1/1949,"NAKALELE FIELD 60 49, HI US",2.139864108,14,-156.5358276,20.79466143,0.239366745,Kaheawa Wind II
0.9932,668.4,METERS,GHCND_USW00024162,44.0206,-117.0128,10/16/2018,7/10/1997,"ONTARIO, OR US",2.139864108,14,-117.2724564,44.3817026,0.444765707,Willow Spring
0.9743,688.8,METERS,GHCND_USC00355160,43.9794,-117.0247,10/17/2018,7/1/1942,"MALHEUR BRANCH EXPERIMENT STATION, OR US",2.139864108,14,-117.2724564,44.3817026,0.472472873,Willow Spring
0.9361,698,METERS,GHCND_USC00106844,43.8023,-116.9442,12/29/2017,11/7/1922,"PARMA EXPERIMENT STATION, ID US",2.139864108,14,-117.2724564,44.3817026,0.665927651,Willow Spring
0.9932,668.4,METERS,GHCND_USW00024162,44.0206,-117.0128,10/16/2018,7/10/1997,"ONTARIO, OR US",2.139864108,14,-117.257393,44.4169648,0.465758296,Prospector
0.9743,688.8,METERS,GHCND_USC00355160,43.9794,-117.0247,10/17/2018,7/1/1942,"MALHEUR BRANCH EXPERIMENT STATION, OR US",2.139864108,14,-117.257393,44.4169648,0.495589534,Prospector
0.9361,698,METERS,GHCND_USC00106844,43.8023,-116.9442,12/29/2017,11/7/1922,"PARMA EXPERIMENT STATION, ID US",2.139864108,14,-117.257393,44.4169648,0.689856994,Prospector
0.996,214.9,METERS,GHCND_USC00173570,44.3744,-70.3163,10/17/2018,5/1/1998,"HARTFORD, ME US",1.78322009,13,-70.303584,44.51365275,0.139832132,Canton Mountain
1,107,METERS,GHCND_USW00014605,44.3155,-69.7972,10/16/2018,6/1/1948,"AUGUSTA STATE AIRPORT, ME US",1.78322009,13,-70.303584,44.51365275,0.543773177,Canton Mountain
0.9955,542.5,METERS,GHCND_USC00177039,44.9894,-70.6722,10/17/2018,8/1/1997,"RANGELEY 2 NW, ME US",1.78322009,13,-70.303584,44.51365275,0.601841508,Canton Mountain
0.998,190.2,METERS,GHCND_USW00014607,46.8705,-68.0173,10/16/2018,1/16/1939,"CARIBOU WEATHER FORECAST OFFICE, ME US",2.567836929,15,-67.81216395,46.53806735,0.3906306,Mars Hill (1Q07)
0.9631,145.1,METERS,GHCND_USW00014609,46.1185,-67.7928,10/16/2018,6/1/1948,"HOULTON AIRPORT, ME US",2.567836929,15,-67.81216395,46.53806735,0.420013957,Mars Hill (1Q07)
0.9809,245,METERS,GHCND_CA00810I001,47.15,-67.8333,2/5/2017,8/16/2001,"ST LEONARD CS, CA",2.567836929,15,-67.81216395,46.53806735,0.612297559,Mars Hill (1Q07)
0.9665,192.6,METERS,GHCND_USC00459200,46.0436,-118.4628,10/17/2018,10/1/1962,"WHITMAN MISSION, WA US",1.238347284,11,-118.4711292,45.89155983,0.152268143,Chopin
0.788,453.2,METERS,GHCND_USC00356540,45.7206,-118.6264,10/15/2018,12/1/1932,"PENDLETON BRANCH EXPERIMENTAL STATION, OR US",1.238347284,11,-118.4711292,45.89155983,0.230946523,Chopin
0.9474,355.4,METERS,GHCND_USW00024160,46.09472,-118.28694,10/16/2018,1/1/1949,"WALLA WALLA REGIONAL AIRPORT, WA US",1.238347284,11,-118.4711292,45.89155983,0.274225641,Chopin
0.987,1129,METERS,GHCND_USW00003013,38.07,-102.68806,10/16/2018,7/1/1996,"LAMAR MUNICIPAL AIRPORT, CO US",2.139864108,14,-102.5335275,38.032696,0.158971324,Lamar Municipal
0.9511,1162.5,METERS,GHCND_USC00054388,38.0634,-102.9298,10/17/2018,8/1/1941,"JOHN MARTIN DAM, CO US",2.139864108,14,-102.5335275,38.032696,0.397460224,Lamar Municipal
0.6648,1212.5,METERS,GHCND_USC00058793,37.3822,-102.2986,10/17/2018,12/1/1940,"WALSH 1 W, CO US",2.139864108,14,-102.5335275,38.032696,0.691618375,Lamar Municipal
1,472.7,METERS,GHCND_USW00014941,41.9855,-97.4352,10/16/2018,10/1/1945,"NORFOLK KARL STEFAN MEMORIAL AIRPORT, NE US",2.139864108,14,-97.3850765,41.677593,0.311960071,Creston Ridge
0.5342,463.3,METERS,GHCND_USC00254035,41.7175,-97.003,7/25/2018,10/1/1934,"HOWELLS, NE US",2.139864108,14,-97.3850765,41.677593,0.384154943,Creston Ridge
0.9084,502.9,METERS,GHCND_USC00253075,41.3594,-97.9761,11/30/2013,3/1/1901,"FULLERTON, NE US",2.139864108,14,-97.3850765,41.677593,0.671234358,Creston Ridge
0.9988,1266.1,METERS,GHCND_USW00024133,42.5416,-113.7661,10/16/2018,8/2/1948,"BURLEY MUNICIPAL AIRPORT, ID US",1.78322009,13,-113.9228345,42.48918615,0.16526623,Burley Butte
0.9927,1207,METERS,GHCND_USC00109303,42.5458,-114.3461,10/31/2012,4/13/1963,"TWIN FALLS, ID US",1.78322009,13,-113.9228345,42.48918615,0.427034868,Burley Butte
0.9688,1269.2,METERS,GHCND_USC00105980,42.6769,-113.5021,10/6/2018,5/2/1947,"MINIDOKA DAM, ID US",1.78322009,13,-113.9228345,42.48918615,0.460710364,Burley Butte
0.9978,454.2,METERS,GHCND_USC00361705,39.7994,-79.3665,10/17/2018,7/1/1946,"CONFLUENCE 1 SW DAM, PA US",1.78322009,13,-79.39084189,39.92044933,0.123472542,Mill Run Windpower LLC
0.888,694.9,METERS,GHCND_USC00461900,39.67722,-79.77194,2/29/2012,2/1/1978,"COOPERS ROCK STATE FOREST, WV US",1.78322009,13,-79.39084189,39.92044933,0.452102067,Mill Run Windpower LLC
0.9651,455.7,METERS,GHCND_USC00188065,39.5099,-79.1401,10/17/2018,2/26/1945,"SAVAGE RIVER DAM, MD US",1.78322009,13,-79.39084189,39.92044933,0.481063665,Mill Run Windpower LLC
0.99,1706.9,METERS,GHCND_USC00244954,46.3615,-110.5998,8/31/2018,7/25/1959,"LENNEP 5 SW, MT US",2.567836929,15,-110.334039,46.41209217,0.270533688,Gordon Butte
0.984,1415.2,METERS,GHCND_USW00024150,45.6983,-110.4408,10/16/2018,7/1/1948,"LIVINGSTON AIRPORT, MT US",2.567836929,15,-110.334039,46.41209217,0.721732061,Gordon Butte
0.4942,1293.6,METERS,GHCND_USC00244193,46.9997,-109.8704,2/4/2018,7/1/1920,"HOBSON, MT US",2.567836929,15,-110.334039,46.41209217,0.748494548,Gordon Butte
0.9974,347.5,METERS,GHCND_USC00214546,44.2395,-95.3152,10/2/2018,1/1/1961,"LAMBERTON SOUTHWEST RESEARCH AND OUTREACH CENTER, MN US",2.567836929,15,-96.00809013,43.97248163,0.742560124,Viking
0.9561,435.9,METERS,GHCND_USC00397666,43.5877,-96.73,10/17/2018,1/1/2011,"SIOUX FALLS WEATHER FORECAST OFFICE AIRPORT, SD US",2.567836929,15,-96.00809013,43.97248163,0.818053034,Viking
0.9932,497.4,METERS,GHCND_USC00391076,44.3252,-96.7686,10/16/2018,1893-01-01,"BROOKINGS 2 NE, SD US",2.567836929,15,-96.00809013,43.97248163,0.838323042,Viking
0.9947,3.7,METERS,GHCND_USW00094225,46.9727,-123.9302,10/16/2018,5/12/1953,"HOQUIAM BOWERMAN AIRPORT, WA US",3.697685178,17,-124.0655098,46.792945,0.224990196,Coastal Energy
1,2.7,METERS,GHCND_USW00094224,46.1569,-123.8825,10/16/2018,1/16/1953,"ASTORIA AIRPORT PORT OF, OR US",3.697685178,17,-124.0655098,46.792945,0.661850293,Coastal Energy
1,82.6,METERS,GHCND_USW00094227,47.238,-123.1408,10/15/2018,5/22/1998,"SHELTON SANDERSON FIELD, WA US",3.697685178,17,-124.0655098,46.792945,1.026236851,Coastal Energy
0.8412,570,METERS,GHCND_USC00355734,45.4825,-120.7236,10/11/2018,1897-11-01,"MORO, OR US",2.567836929,15,-120.5504638,45.56471513,0.191665041,Klondike (Wasco)
0.9975,71.6,METERS,GHCND_USW00024219,45.6194,-121.1661,10/15/2018,7/1/1948,"DALLESPORT AIRPORT, WA US",2.567836929,15,-120.5504638,45.56471513,0.618060214,Klondike (Wasco)
0.9283,253,METERS,GHCND_USC00456768,46.2014,-119.758,10/17/2018,7/1/1925,"PROSSER, WA US",2.567836929,15,-120.5504638,45.56471513,1.016546322,Klondike (Wasco)
0.9947,353,METERS,GHCND_USW00094700,44.57611,-71.17861,10/15/2018,7/1/1996,"BERLIN MUNICIPAL AIRPORT, NH US",1.238347284,11,-71.2228026,44.4685892,0.116248477,Jericho Mountain
0.9994,1911.4,METERS,GHCND_USW00014755,44.27018,-71.30336,10/17/2018,1/1/1948,"MOUNT WASHINGTON, NH US",1.238347284,11,-71.2228026,44.4685892,0.214139453,Jericho Mountain
0.9967,327.4,METERS,GHCND_USW00054728,44.3675,-71.545,10/15/2018,7/1/1996,"WHITEFIELD MOUNT WASHINGTON REGIONAL AIRPORT, NH US",1.238347284,11,-71.2228026,44.4685892,0.337683566,Jericho Mountain
0.9988,1266.1,METERS,GHCND_USW00024133,42.5416,-113.7661,10/16/2018,8/2/1948,"BURLEY MUNICIPAL AIRPORT, ID US",1.486016741,12,-114.0188879,42.46044077,0.265496807,Milner Dam
0.9927,1207,METERS,GHCND_USC00109303,42.5458,-114.3461,10/31/2012,4/13/1963,"TWIN FALLS, ID US",1.486016741,12,-114.0188879,42.46044077,0.338162596,Milner Dam
0.9933,1265.2,METERS,GHCND_USW00094178,42.48194,-114.48694,10/16/2018,6/8/1997,"TWIN FALLS SUN VALLEY REGIONAL AIRPORT, ID US",1.486016741,12,-114.0188879,42.46044077,0.468545583,Milner Dam
0.99,1706.9,METERS,GHCND_USC00244954,46.3615,-110.5998,8/31/2018,7/25/1959,"LENNEP 5 SW, MT US",2.139864108,14,-110.0878538,46.45034283,0.519597851,Two Dot
0.4942,1293.6,METERS,GHCND_USC00244193,46.9997,-109.8704,2/4/2018,7/1/1920,"HOBSON, MT US",2.139864108,14,-110.0878538,46.45034283,0.590829473,Two Dot
0.9782,1310.6,METERS,GHCND_USC00245761,47.0573,-109.951,6/30/2018,1/1/1909,"MOCCASIN EXPERIMENT STATION, MT US",2.139864108,14,-110.0878538,46.45034283,0.622194482,Two Dot
1,107,METERS,GHCND_USW00014605,44.3155,-69.7972,10/16/2018,6/1/1948,"AUGUSTA STATE AIRPORT, ME US",2.567836929,15,-69.335261,44.49516033,0.495646522,Patriot
0.9967,45.1,METERS,GHCND_USW00014606,44.7978,-68.8185,10/16/2018,1/1/1953,"BANGOR INTERNATIONAL AIRPORT, ME US",2.567836929,15,-69.335261,44.49516033,0.598859499,Patriot
0.9944,20.7,METERS,GHCND_USW00094623,43.96361,-69.71167,10/15/2018,7/1/1996,"WISCASSET AIRPORT, ME US",2.567836929,15,-69.335261,44.49516033,0.65132902,Patriot
0.9456,24.4,METERS,GHCND_USW00025501,57.75111,-152.48556,10/16/2018,1/1/1945,"KODIAK AIRPORT, AK US",9.201023982,22,-152.4432777,57.786765,0.055308903,Kodiak Island Wind Project
0.9873,8.8,METERS,GHCND_USW00025516,59.44333,-151.70167,10/15/2018,6/1/1997,"SELDOVIA AIRPORT, AK US",9.201023982,22,-152.4432777,57.786765,1.814990229,Kodiak Island Wind Project
0.9694,19.5,METERS,GHCND_USW00025507,59.642,-151.4908,10/16/2018,9/1/1932,"HOMER AIRPORT, AK US",9.201023982,22,-152.4432777,57.786765,2.085452136,Kodiak Island Wind Project
0.9952,124.7,METERS,GHCND_USW00093138,33.8222,-116.5043,10/16/2018,2/19/1998,"PALM SPRINGS ASOS, CA US",1.238347284,11,-116.5584674,33.919953,0.111757578,Karen Avenue Windfarm
0.988,1050,METERS,GHCND_USC00049884,34.2182,-116.4073,9/23/2018,1/1/2011,"YUCCA MESA, CA US",1.238347284,11,-116.5584674,33.919953,0.33436934,Karen Avenue Windfarm
0.8203,-6.4,METERS,GHCND_USC00044259,33.7086,-116.2152,10/12/2018,1894-03-01,"INDIO FIRE STATION, CA US",1.238347284,11,-116.5584674,33.919953,0.40311611,Karen Avenue Windfarm
0.9939,3,METERS,GHCND_USW00013724,39.37778,-74.42361,10/15/2018,1873-12-10,"ATLANTIC CITY MARINA, NJ US",1.78322009,13,-74.44834,39.3819724,0.025082845,Jersey Atlantic Wind Farm
0.8404,18.3,METERS,GHCND_USW00093730,39.45202,-74.56699,10/16/2018,1/1/1947,"ATLANTIC CITY INTERNATIONAL AIRPORT, NJ US",1.78322009,13,-74.44834,39.3819724,0.137784211,Jersey Atlantic Wind Farm
0.7074,38.1,METERS,GHCND_USC00283662,39.64415,-74.80478,10/16/2018,1893-01-01,"HAMMONTON 1 NE, NJ US",1.78322009,13,-74.44834,39.3819724,0.442477759,Jersey Atlantic Wind Farm
0.9812,1140,METERS,GHCND_USC00104670,42.7325,-114.5192,9/20/2018,9/1/1915,"JEROME, ID US",2.567836929,15,-115.0096789,42.82478714,0.49908559,Payne's Ferry
0.9754,1233.8,METERS,GHCND_USW00004110,42.72667,-114.45639,10/16/2018,2/11/1997,"JEROME CO AIRPORT, ID US",2.567836929,15,-115.0096789,42.82478714,0.561921287,Payne's Ferry
0.9933,1265.2,METERS,GHCND_USW00094178,42.48194,-114.48694,10/16/2018,6/8/1997,"TWIN FALLS SUN VALLEY REGIONAL AIRPORT, ID US",2.567836929,15,-115.0096789,42.82478714,0.625140045,Payne's Ferry
0.9986,335,METERS,GHCND_USC00130200,42.0208,-93.7741,10/10/2018,11/1/1964,"AMES 8 WSW, IA US",3.081404315,16,-93.610676,42.568729,0.571781071,Century expansion (4Q07)
0.9965,291.1,METERS,GHCND_USW00094989,41.99056,-93.61889,10/16/2018,10/1/1996,"AMES MUNICIPAL AIRPORT, IA US",3.081404315,16,-93.610676,42.568729,0.578227345,Century expansion (4Q07)
0.9999,373.4,METERS,GHCND_USW00014940,43.1544,-93.3269,10/16/2018,1/1/1948,"MASON CITY MUNICIPAL AIRPORT, IA US",3.081404315,16,-93.610676,42.568729,0.650799,Century expansion (4Q07)
0.9965,696.2,METERS,GHCND_USW00004726,40.31611,-78.83389,10/15/2018,8/1/2000,"JOHNSTOWN CAMBRIA CO AIRPORT, PA US",2.139864108,14,-79.011551,39.97989983,0.380263997,Somerset
0.9978,454.2,METERS,GHCND_USC00361705,39.7994,-79.3665,10/17/2018,7/1/1946,"CONFLUENCE 1 SW DAM, PA US",2.139864108,14,-79.011551,39.97989983,0.39820721,Somerset
0.9651,455.7,METERS,GHCND_USC00188065,39.5099,-79.1401,10/17/2018,2/26/1945,"SAVAGE RIVER DAM, MD US",2.139864108,14,-79.011551,39.97989983,0.487262443,Somerset
0.989,789.7,METERS,GHCND_USW00023156,33.9255,-116.9903,7/31/2001,8/1/1939,"BEAUMONT NUMBER 2, CA US",1.78322009,13,-116.813236,33.9158955,0.177324298,Robertsons Ready Mix
0.9952,124.7,METERS,GHCND_USW00093138,33.8222,-116.5043,10/16/2018,2/19/1998,"PALM SPRINGS ASOS, CA US",1.78322009,13,-116.813236,33.9158955,0.322831688,Robertsons Ready Mix
0.3188,468.2,METERS,GHCND_USW00023119,33.9,-117.25,10/16/2018,1/1/1949,"MARCH AFB, CA US",1.78322009,13,-116.813236,33.9158955,0.437053153,Robertsons Ready Mix
0.3824,39.6,METERS,GHCND_USW00014704,41.65,-70.51667,7/30/2010,1/1/1949,"FALMOUTH OTIS AFB, MA US",1.238347284,11,-70.543552,41.7533415,0.106780652,6th Space Warning Squadron
0.9904,45.4,METERS,GHCND_USW00054769,41.90972,-70.72944,10/15/2018,7/6/1996,"PLYMOUTH MUNICIPAL AIRPORT, MA US",1.238347284,11,-70.543552,41.7533415,0.242916825,6th Space Warning Squadron
0.9959,16.8,METERS,GHCND_USW00094720,41.66861,-70.28,10/15/2018,1/1/1998,"HYANNIS BARNSTABLE MUNICIPAL AIRPORT, MA US",1.238347284,11,-70.543552,41.7533415,0.276837649,6th Space Warning Squadron
1,32,METERS,GHCND_USC00172443,44.4934,-68.4582,10/16/2018,7/1/2011,"EAST SURRY, ME US",3.081404315,16,-68.865799,44.093891,0.570740209,Fox Islands
0.936,14.9,METERS,GHCND_USC00172623,44.53528,-68.42056,6/30/2011,1/1/2002,"ELLSWORTH POLL CONTROL, ME US",3.081404315,16,-68.865799,44.093891,0.626946582,Fox Islands
0.9967,45.1,METERS,GHCND_USW00014606,44.7978,-68.8185,10/16/2018,1/1/1953,"BANGOR INTERNATIONAL AIRPORT, ME US",3.081404315,16,-68.865799,44.093891,0.705496333,Fox Islands
0.989,789.7,METERS,GHCND_USW00023156,33.9255,-116.9903,7/31/2001,8/1/1939,"BEAUMONT NUMBER 2, CA US",1.78322009,13,-116.749889,33.916994,0.240561429,Nestle Waters
0.9952,124.7,METERS,GHCND_USW00093138,33.8222,-116.5043,10/16/2018,2/19/1998,"PALM SPRINGS ASOS, CA US",1.78322009,13,-116.749889,33.916994,0.263248664,Nestle Waters
0.988,1050,METERS,GHCND_USC00049884,34.2182,-116.4073,9/23/2018,1/1/2011,"YUCCA MESA, CA US",1.78322009,13,-116.749889,33.916994,0.456171325,Nestle Waters
0.3159,18,METERS,GHCND_USW00023202,38.26667,-121.93333,10/12/2018,5/24/1947,"TRAVIS FIELD AFB, CA US",0.859963392,9,-122.090683,38.2329005,0.160935844,Anheuser-Busch Fairfield
0.9996,4.3,METERS,GHCND_USW00093227,38.2102,-122.2847,10/16/2018,5/22/1998,"NAPA CO AIRPORT, CA US",0.859963392,9,-122.090683,38.2329005,0.195340495,Anheuser-Busch Fairfield
0.9879,33.2,METERS,GHCND_USW00093241,38.3775,-121.9575,10/16/2018,4/6/1998,"VACAVILLE NUT TREE AIRPORT, CA US",0.859963392,9,-122.090683,38.2329005,0.196587708,Anheuser-Busch Fairfield
0.7574,195.1,METERS,GHCND_USW00054768,42.69728,-73.16967,10/16/2018,10/1/1987,"NORTH ADAMS HARRIMAN AIRPORT, MA US",1.238347284,11,-73.2749786,42.5852712,0.153739626,Berkshire Wind
0.6509,363.9,METERS,GHCND_USW00014763,42.42722,-73.28917,10/16/2018,6/1/1925,"PITTSFIELD MUNICIPAL AIRPORT, MA US",1.238347284,11,-73.2749786,42.5852712,0.158687043,Berkshire Wind
0.8409,338.3,METERS,GHCND_USC00436500,42.79167,-73.22278,7/20/2013,1/11/1975,"POWNAL 1 NE, VT US",1.238347284,11,-73.2749786,42.5852712,0.212897061,Berkshire Wind
1,1116.8,METERS,GHCND_USW00024143,47.4733,-111.3822,10/16/2018,4/1/1937,"GREAT FALLS AIRPORT, MT US",2.567836929,15,-111.43787,47.50050933,0.061963673,Horseshoe Bend&ranch pit
0.9928,1143,METERS,GHCND_USC00246700,47.6544,-111.598,5/31/2014,2/13/1953,"POWER 6 SE, MT US",2.567836929,15,-111.43787,47.50050933,0.222089969,Horseshoe Bend&ranch pit
0.4638,1058.3,METERS,GHCND_USW00024112,47.51667,-111.18333,6/8/2014,1/1/1949,"MALMSTROM AFB, MT US",2.567836929,15,-111.43787,47.50050933,0.255052502,Horseshoe Bend&ranch pit
0.3824,39.6,METERS,GHCND_USW00014704,41.65,-70.51667,7/30/2010,1/1/1949,"FALMOUTH OTIS AFB, MA US",1.238347284,11,-70.5465505,41.7585905,0.112626555,AFCEE MMR Turbines
0.9904,45.4,METERS,GHCND_USW00054769,41.90972,-70.72944,10/15/2018,7/6/1996,"PLYMOUTH MUNICIPAL AIRPORT, MA US",1.238347284,11,-70.5465505,41.7585905,0.237252387,AFCEE MMR Turbines
0.9959,16.8,METERS,GHCND_USW00094720,41.66861,-70.28,10/15/2018,1/1/1998,"HYANNIS BARNSTABLE MUNICIPAL AIRPORT, MA US",1.238347284,11,-70.5465505,41.7585905,0.281328384,AFCEE MMR Turbines
0.9954,109.7,METERS,GHCND_USC00364778,40.11903,-76.4265,10/15/2018,4/1/1952,"LANDISVILLE 2 NW, PA US",1.238347284,11,-76.4558985,39.9590915,0.162617944,Turkey Hill Frey Farm
0.999,122.8,METERS,GHCND_USW00054737,40.12028,-76.29444,10/15/2018,3/16/1999,"LANCASTER AIRPORT, PA US",1.238347284,11,-76.4558985,39.9590915,0.228145962,Turkey Hill Frey Farm
0.6288,95.1,METERS,GHCND_USW00014711,40.1962,-76.7724,10/16/2018,2/1/1935,"MIDDLETOWN HARRISBURG INTERNATIONAL AIRPORT, PA US",1.238347284,11,-76.4558985,39.9590915,0.395466358,Turkey Hill Frey Farm
0.9812,1140,METERS,GHCND_USC00104670,42.7325,-114.5192,9/20/2018,9/1/1915,"JEROME, ID US",2.567836929,15,-115.0000283,42.790979,0.48437138,Pilgrim Stage Station
0.9754,1233.8,METERS,GHCND_USW00004110,42.72667,-114.45639,10/16/2018,2/11/1997,"JEROME CO AIRPORT, ID US",2.567836929,15,-115.0000283,42.790979,0.547428747,Pilgrim Stage Station
0.9933,1265.2,METERS,GHCND_USW00094178,42.48194,-114.48694,10/16/2018,6/8/1997,"TWIN FALLS SUN VALLEY REGIONAL AIRPORT, ID US",2.567836929,15,-115.0000283,42.790979,0.598969692,Pilgrim Stage Station
0.6847,256,METERS,GHCND_USC00517421,19.1987,-155.4778,10/16/2018,1/1/1905,"PAHALA 21, HI US",2.567836929,15,-155.6895957,18.97133971,0.310725158,Pakini Nui (KA'ALUALU)
0.8161,286.5,METERS,GHCND_USC00511665,19.4174,-155.8805,8/31/2018,1/1/1938,"HONAUNAU 27, HI US",2.567836929,15,-155.6895957,18.97133971,0.485195038,Pakini Nui (KA'ALUALU)
0.8138,2529.8,METERS,GHCND_USC00515018,19.5833,-155.4549,8/27/2018,7/4/1950,"KULANI MAUKA 76, HI US",2.567836929,15,-155.6895957,18.97133971,0.655421597,Pakini Nui (KA'ALUALU)
0.999,584.3,METERS,GHCND_USW00023161,34.8536,-116.7858,10/16/2018,12/1/1943,"DAGGETT AIRPORT, CA US",2.139864108,14,-117.112087,34.622145,0.400043277,Cemex Black Mountain Quarry
0.9243,300.5,METERS,GHCND_USC00047473,33.96694,-117.36139,9/30/2009,7/1/1948,"RIVERSIDE CITRUS EXPERIMENTAL, CA US",2.139864108,14,-117.112087,34.622145,0.701031795,Cemex Black Mountain Quarry
0.989,789.7,METERS,GHCND_USW00023156,33.9255,-116.9903,7/31/2001,8/1/1939,"BEAUMONT NUMBER 2, CA US",2.139864108,14,-117.112087,34.622145,0.707210244,Cemex Black Mountain Quarry
0.9991,289.3,METERS,GHCND_USW00003102,34.05611,-117.60028,10/16/2018,5/25/1998,"ONTARIO INTERNATIONAL AIRPORT, CA US",1.78322009,13,-117.3065375,34.5610465,0.584162242,Cemex River Plant
0.9243,300.5,METERS,GHCND_USC00047473,33.96694,-117.36139,9/30/2009,7/1/1948,"RIVERSIDE CITRUS EXPERIMENTAL, CA US",1.78322009,13,-117.3065375,34.5610465,0.59663333,Cemex River Plant
0.999,584.3,METERS,GHCND_USW00023161,34.8536,-116.7858,10/16/2018,12/1/1943,"DAGGETT AIRPORT, CA US",1.78322009,13,-117.3065375,34.5610465,0.597289791,Cemex River Plant
0.9869,297.2,METERS,GHCND_USW00004850,40.7075,-84.02722,10/16/2018,2/1/1998,"LIMA ALLEN CO AIRPORT, OH US",2.139864108,14,-83.892563,40.4477025,0.29262134,Honda Plant
0.9969,243.8,METERS,GHCND_USW00014825,41.01361,-83.66861,10/15/2018,1/1/1942,"FINDLAY AIRPORT, OH US",2.139864108,14,-83.892563,40.4477025,0.608610093,Honda Plant
0.9999,305.7,METERS,GHCND_USW00093815,39.9064,-84.2185,10/16/2018,1/1/1948,"DAYTON INTERNATIONAL AIRPORT, OH US",2.139864108,14,-83.892563,40.4477025,0.631857044,Honda Plant
0.998,190.2,METERS,GHCND_USW00014607,46.8705,-68.0173,10/16/2018,1/16/1939,"CARIBOU WEATHER FORECAST OFFICE, ME US",2.567836929,15,-67.807555,46.56281614,0.372373899,Mars Hill Mountain
0.9631,145.1,METERS,GHCND_USW00014609,46.1185,-67.7928,10/16/2018,6/1/1948,"HOULTON AIRPORT, ME US",2.567836929,15,-67.807555,46.56281614,0.44456107,Mars Hill Mountain
0.9809,245,METERS,GHCND_CA00810I001,47.15,-67.8333,2/5/2017,8/16/2001,"ST LEONARD CS, CA",2.567836929,15,-67.807555,46.56281614,0.587747979,Mars Hill Mountain
0.5781,408.4,METERS,GHCND_USC00065445,41.9725,-73.2208,10/17/2018,1884-11-01,"NORFOLK 2 SW, CT US",1.486016741,12,-73.1454545,41.9635905,0.075870439,Wind Colebrook South
0.9088,53.3,METERS,GHCND_USW00014740,41.9375,-72.6819,10/16/2018,1/8/1942,"HARTFORD BRADLEY INTERNATIONAL AIRPORT, CT US",1.486016741,12,-73.1454545,41.9635905,0.464288153,Wind Colebrook South
0.3423,82.6,METERS,GHCND_USW00014775,42.15778,-72.71611,10/15/2018,6/1/1948,"WESTFIELD BARNES MUNICIPAL AIRPORT, MA US",1.486016741,12,-73.1454545,41.9635905,0.471217849,Wind Colebrook South
0.9998,1194.2,METERS,GHCND_USW00023044,31.81111,-106.37583,10/16/2018,4/1/1938,"EL PASO INTERNATIONAL AIRPORT, TX US",3.697685178,17,-106.405552,31.7881105,0.037581568,unknown El Paso County
0.9764,1118.6,METERS,GHCND_USC00419966,31.69528,-106.32167,9/30/2009,2/1/1939,"YSLETA, TX US",3.697685178,17,-106.405552,31.7881105,0.125114714,unknown El Paso County
0.9984,1184.5,METERS,GHCND_USC00298535,32.2823,-106.7598,10/17/2018,4/1/1959,"STATE UNIVERSITY, NM US",3.697685178,17,-106.405552,31.7881105,0.608041863,unknown El Paso County
0.9812,1140,METERS,GHCND_USC00104670,42.7325,-114.5192,9/20/2018,9/1/1915,"JEROME, ID US",2.567836929,15,-114.990299,42.83899378,0.482985706,Oregon Trail
0.9754,1233.8,METERS,GHCND_USW00004110,42.72667,-114.45639,10/16/2018,2/11/1997,"JEROME CO AIRPORT, ID US",2.567836929,15,-114.990299,42.83899378,0.545596418,Oregon Trail
0.9933,1265.2,METERS,GHCND_USW00094178,42.48194,-114.48694,10/16/2018,6/8/1997,"TWIN FALLS SUN VALLEY REGIONAL AIRPORT, ID US",2.567836929,15,-114.990299,42.83899378,0.617136681,Oregon Trail
0.9991,1335.9,METERS,GHCND_USW00003028,37.28333,-102.61389,10/16/2018,7/1/1998,"SPRINGFIELD COMANCHE NATIONAL GRASSLAND, CO US",2.139864108,14,-102.650894,37.362293,0.087203506,ARPA (Prower and Baca County) (Lamar)
0.9945,1408.8,METERS,GHCND_USC00057866,37.36944,-102.74278,5/31/2002,9/1/1956,"SPRINGFIELD 7 WSW, CO US",2.139864108,14,-102.650894,37.362293,0.092163532,ARPA (Prower and Baca County) (Lamar)
0.6648,1212.5,METERS,GHCND_USC00058793,37.3822,-102.2986,10/17/2018,12/1/1940,"WALSH 1 W, CO US",2.139864108,14,-102.650894,37.362293,0.352855992,ARPA (Prower and Baca County) (Lamar)
0.9867,57,METERS,GHCND_USC00044712,38.492,-122.0039,10/17/2018,8/1/1975,"LAKE SOLANO, CA US",1.03195607,10,-121.935188,38.687595,0.207313152,Cemex Madison
0.9116,18.3,METERS,GHCND_USC00042294,38.5349,-121.7761,10/17/2018,1893-01-01,"DAVIS 2 WSW EXPERIMENTAL FARM, CA US",1.03195607,10,-121.935188,38.687595,0.220510215,Cemex Madison
0.9927,146.3,METERS,GHCND_USC00045360,38.4916,-122.1241,10/17/2018,3/1/1970,"MARKLEY COVE, CA US",1.03195607,10,-121.935188,38.687595,0.272216428,Cemex Madison
0.9999,373.4,METERS,GHCND_USW00014940,43.1544,-93.3269,10/16/2018,1/1/1948,"MASON CITY MUNICIPAL AIRPORT, IA US",3.697685178,17,-93.283195,43.297291,0.149425449,Roeder Farms
0.9941,351.4,METERS,GHCND_USC00218692,44.0707,-93.5264,10/4/2018,1/2/1915,"WASECA SOUTHERN RESEARCH AND OUTREACH CENTER, MN US",3.697685178,17,-93.283195,43.297291,0.810746664,Roeder Farms
0.8179,397.5,METERS,GHCND_USW00014925,43.9041,-92.4916,10/16/2018,1893-01-01,"ROCHESTER INTERNATIONAL AIRPORT, MN US",3.697685178,17,-93.283195,43.297291,0.997416566,Roeder Farms
1,265.8,METERS,GHCND_USW00014922,44.8831,-93.2289,10/16/2018,4/9/1938,"MINNEAPOLIS ST PAUL INTERNATIONAL AIRPORT, MN US",1.486016741,12,-93.127914,44.468742,0.426486488,Carleton College
0.466,213.4,METERS,GHCND_USW00014927,44.9322,-93.0558,10/15/2018,1/1/1937,"ST. PAUL DOWNTOWN AIRPORT, MN US",1.486016741,12,-93.127914,44.468742,0.46903491,Carleton College
0.9937,276.5,METERS,GHCND_USW00094963,44.8321,-93.4705,10/15/2018,11/1/1997,"MINNEAPOLIS FLYING CLOUD AIRPORT, MN US",1.486016741,12,-93.127914,44.468742,0.499393836,Carleton College
0.9921,712.6,METERS,GHCND_USW00003159,34.7411,-118.2116,10/16/2018,4/16/1974,"LANCASTER, CA US",1.486016741,12,-118.221596,34.691982,0.050124824,California State Prison Los Angeles County
0.6383,769.2,METERS,GHCND_USW00023182,34.62944,-118.08361,10/16/2018,1/2/1934,"PALMDALE AIRPORT, CA US",1.486016741,12,-118.221596,34.691982,0.15149798,California State Prison Los Angeles County
0.6654,833.6,METERS,GHCND_USC00045756,35.0492,-118.1619,10/17/2018,1/1/1904,"MOJAVE, CA US",1.486016741,12,-118.221596,34.691982,0.362171661,California State Prison Los Angeles County
0.8955,406.6,METERS,GHCND_USC00133438,41.298,-94.4561,10/16/2018,1893-01-01,"GREENFIELD, IA US",2.567836929,15,-94.440491,41.225693,0.073972584,Bulldog
0.987,345.9,METERS,GHCND_USW00094991,40.6306,-93.9008,10/16/2018,1/1/1998,"LAMONI MUNICIPAL AIRPORT, IA US",2.567836929,15,-94.440491,41.225693,0.803369189,Bulldog
0.9997,291.7,METERS,GHCND_USW00014933,41.5338,-93.653,10/16/2018,7/1/1945,"DES MOINES INTERNATIONAL AIRPORT, IA US",2.567836929,15,-94.440491,41.225693,0.845619299,Bulldog
0.9818,198.1,METERS,GHCND_USC00116738,39.8058,-90.8236,6/30/2018,9/1/1992,"PERRY 6 NW, IL US",3.081404315,16,-90.699394,39.973492,0.208680946,Brown County Wind Turbine
0.9994,234.4,METERS,GHCND_USW00093989,39.93694,-91.19194,10/16/2018,6/1/1948,"QUINCY REGIONAL AIRPORT, IL US",3.081404315,16,-90.699394,39.973492,0.493900406,Brown County Wind Turbine
0.9581,210.3,METERS,GHCND_USC00131060,40.7747,-91.1165,10/16/2018,12/16/1964,"BURLINGTON 2 S, IA US",3.081404315,16,-90.699394,39.973492,0.903278293,Brown County Wind Turbine
0.6654,833.6,METERS,GHCND_USC00045756,35.0492,-118.1619,10/17/2018,1/1/1904,"MOJAVE, CA US",1.486016741,12,-118.322021,35.057533,0.160337686,Brookfield Tehachapi 3
0.9921,712.6,METERS,GHCND_USW00003159,34.7411,-118.2116,10/16/2018,4/16/1974,"LANCASTER, CA US",1.486016741,12,-118.322021,35.057533,0.335145701,Brookfield Tehachapi 3
0.7252,695.9,METERS,GHCND_USW00053144,34.98833,-117.86472,11/27/2016,5/1/2006,"EDWARDS AFB NORTH AUXILIARY AIRFIELD, CA US",1.486016741,12,-118.322021,35.057533,0.462507578,Brookfield Tehachapi 3
0.8955,406.6,METERS,GHCND_USC00133438,41.298,-94.4561,10/16/2018,1893-01-01,"GREENFIELD, IA US",2.567836929,15,-94.474396,40.767693,0.530622519,Birch Power LLC
0.987,345.9,METERS,GHCND_USW00094991,40.6306,-93.9008,10/16/2018,1/1/1998,"LAMONI MUNICIPAL AIRPORT, IA US",2.567836929,15,-94.474396,40.767693,0.589751526,Birch Power LLC
0.8289,297.2,METERS,GHCND_USC00137613,40.7672,-95.38,10/17/2018,6/1/1918,"SHENANDOAH, IA US",2.567836929,15,-94.474396,40.767693,0.905604134,Birch Power LLC
0.8955,406.6,METERS,GHCND_USC00133438,41.298,-94.4561,10/16/2018,1893-01-01,"GREENFIELD, IA US",2.567836929,15,-94.753922,41.373135,0.307153401,Roseman Energy LLC
0.9899,387.1,METERS,GHCND_USC00133632,41.6452,-95.3339,2/24/2016,1899-02-01,"HARLAN, IA US",2.567836929,15,-94.753922,41.373135,0.640619891,Roseman Energy LLC
0.8289,297.2,METERS,GHCND_USC00137613,40.7672,-95.38,10/17/2018,6/1/1918,"SHENANDOAH, IA US",2.567836929,15,-94.753922,41.373135,0.871281175,Roseman Energy LLC
0.8955,406.6,METERS,GHCND_USC00133438,41.298,-94.4561,10/16/2018,1893-01-01,"GREENFIELD, IA US",2.567836929,15,-94.475632,40.764946,0.533411723,August Wind Energy LLC
0.987,345.9,METERS,GHCND_USW00094991,40.6306,-93.9008,10/16/2018,1/1/1998,"LAMONI MUNICIPAL AIRPORT, IA US",2.567836929,15,-94.475632,40.764946,0.590322519,August Wind Energy LLC
0.8289,297.2,METERS,GHCND_USC00137613,40.7672,-95.38,10/17/2018,6/1/1918,"SHENANDOAH, IA US",2.567836929,15,-94.475632,40.764946,0.904370809,August Wind Energy LLC
0.9831,22.6,METERS,GHCND_USW00023233,36.6636,-121.6081,10/16/2018,6/14/1930,"SALINAS AIRPORT, CA US",2.139864108,14,-121.191589,36.274509,0.569976508,Scheid Vineyards
0.9859,18,METERS,GHCND_USW00093226,35.66556,-121.28472,5/31/2005,1/7/1998,"SAN SIMEON POINT PIEDRAS BLANCAS, CA US",2.139864108,14,-121.191589,36.274509,0.616029437,Scheid Vineyards
0.5739,50.3,METERS,GHCND_USW00023259,36.58806,-121.84528,10/16/2018,12/1/1968,"MONTEREY PENINSUL AIRPORT, CA US",2.139864108,14,-121.191589,36.274509,0.725000795,Scheid Vineyards
0.9901,1245.4,METERS,GHCND_USC00299156,35.2005,-103.6866,10/17/2018,12/1/1904,"TUCUMCARI 4 NE, NM US",1.78322009,13,-103.738991,35.169693,0.060777365,Mesalands
0.6399,1239,METERS,GHCND_USW00023048,35.18222,-103.60306,10/15/2018,1/1/1948,"TUCUMCARI MUNICIPAL AIRPORT, NM US",1.78322009,13,-103.738991,35.169693,0.136507005,Mesalands
0.473,1165.9,METERS,GHCND_USC00299284,35.36,-103.4433,9/30/2015,2/1/1965,"UTE DAM, NM US",1.78322009,13,-103.738991,35.169693,0.351638908,Mesalands
0.9252,765,METERS,GHCND_USW00023041,32.2443,-101.4537,10/17/2018,1/1/1948,"BIG SPRING, TX US",3.697685178,17,-101.855194,32.196693,0.404306639,Stanton Wind
1,872.3,METERS,GHCND_USW00023023,31.9475,-102.2086,10/16/2018,6/1/1930,"MIDLAND INTERNATIONAL AIRPORT, TX US",3.697685178,17,-101.855194,32.196693,0.432426817,Stanton Wind
0.9977,914.7,METERS,GHCND_USW00003031,31.92056,-102.38667,10/16/2018,12/1/1998,"ODESSA SCHLEMEYER FIELD, TX US",3.697685178,17,-101.855194,32.196693,0.598929188,Stanton Wind
0.9986,335,METERS,GHCND_USC00130200,42.0208,-93.7741,10/10/2018,11/1/1964,"AMES 8 WSW, IA US",2.567836929,15,-93.636795,42.335491,0.343341067,AG Land 6
0.9965,291.1,METERS,GHCND_USW00094989,41.99056,-93.61889,10/16/2018,10/1/1996,"AMES MUNICIPAL AIRPORT, IA US",2.567836929,15,-93.636795,42.335491,0.345395402,AG Land 6
0.9938,296.9,METERS,GHCND_USW00094988,42.11056,-92.91611,10/16/2018,10/1/1996,"MARSHALLTOWN MUNICIPAL AIRPORT, IA US",2.567836929,15,-93.636795,42.335491,0.754970744,AG Land 6
0.9965,291.1,METERS,GHCND_USW00094989,41.99056,-93.61889,10/16/2018,10/1/1996,"AMES MUNICIPAL AIRPORT, IA US",2.567836929,15,-93.632095,42.335491,0.345183671,AG Land 5
0.9986,335,METERS,GHCND_USC00130200,42.0208,-93.7741,10/10/2018,11/1/1964,"AMES 8 WSW, IA US",2.567836929,15,-93.632095,42.335491,0.345247513,AG Land 5
0.9938,296.9,METERS,GHCND_USW00094988,42.11056,-92.91611,10/16/2018,10/1/1996,"MARSHALLTOWN MUNICIPAL AIRPORT, IA US",2.567836929,15,-93.632095,42.335491,0.750485493,AG Land 5
0.9965,291.1,METERS,GHCND_USW00094989,41.99056,-93.61889,10/16/2018,10/1/1996,"AMES MUNICIPAL AIRPORT, IA US",3.081404315,16,-93.354897,41.904194,0.27776139,AG Land 4
0.9986,335,METERS,GHCND_USC00130200,42.0208,-93.7741,10/10/2018,11/1/1964,"AMES 8 WSW, IA US",3.081404315,16,-93.354897,41.904194,0.435118506,AG Land 4
0.9997,291.7,METERS,GHCND_USW00014933,41.5338,-93.653,10/16/2018,7/1/1945,"DES MOINES INTERNATIONAL AIRPORT, IA US",3.081404315,16,-93.354897,41.904194,0.475454639,AG Land 4
0.9937,276.5,METERS,GHCND_USW00094963,44.8321,-93.4705,10/15/2018,11/1/1997,"MINNEAPOLIS FLYING CLOUD AIRPORT, MN US",1.238347284,11,-93.482994,44.736092,0.09681754,Shakopee Mdewakanton Sioux Community Wind 
1,265.8,METERS,GHCND_USW00014922,44.8831,-93.2289,10/16/2018,4/9/1938,"MINNEAPOLIS ST PAUL INTERNATIONAL AIRPORT, MN US",1.238347284,11,-93.482994,44.736092,0.293555979,Shakopee Mdewakanton Sioux Community Wind 
0.9936,262.4,METERS,GHCND_USW00094960,45.0622,-93.351,10/15/2018,10/1/1997,"MINNEAPOLIS CRYSTAL AIRPORT, MN US",1.238347284,11,-93.482994,44.736092,0.351807964,Shakopee Mdewakanton Sioux Community Wind 
0.8955,406.6,METERS,GHCND_USC00133438,41.298,-94.4561,10/16/2018,1893-01-01,"GREENFIELD, IA US",2.567836929,15,-94.339256,41.469986,0.207922352,Wind GEM
0.9997,291.7,METERS,GHCND_USW00014933,41.5338,-93.653,10/16/2018,7/1/1945,"DES MOINES INTERNATIONAL AIRPORT, IA US",2.567836929,15,-94.339256,41.469986,0.689216602,Wind GEM
0.9986,335,METERS,GHCND_USC00130200,42.0208,-93.7741,10/10/2018,11/1/1964,"AMES 8 WSW, IA US",2.567836929,15,-94.339256,41.469986,0.789175118,Wind GEM
0.9999,373.4,METERS,GHCND_USW00014940,43.1544,-93.3269,10/16/2018,1/1/1948,"MASON CITY MUNICIPAL AIRPORT, IA US",3.697685178,17,-93.221489,43.384693,0.253271287,Wind Walkers
0.9941,351.4,METERS,GHCND_USC00218692,44.0707,-93.5264,10/4/2018,1/2/1915,"WASECA SOUTHERN RESEARCH AND OUTREACH CENTER, MN US",3.697685178,17,-93.221489,43.384693,0.750717205,Wind Walkers
0.8179,397.5,METERS,GHCND_USW00014925,43.9041,-92.4916,10/16/2018,1893-01-01,"ROCHESTER INTERNATIONAL AIRPORT, MN US",3.697685178,17,-93.221489,43.384693,0.89583569,Wind Walkers
0.8955,406.6,METERS,GHCND_USC00133438,41.298,-94.4561,10/16/2018,1893-01-01,"GREENFIELD, IA US",3.081404315,16,-94.876793,41.391495,0.430956976,Wiota Wind
0.9899,387.1,METERS,GHCND_USC00133632,41.6452,-95.3339,2/24/2016,1899-02-01,"HARLAN, IA US",3.081404315,16,-94.876793,41.391495,0.522793493,Wiota Wind
0.8289,297.2,METERS,GHCND_USC00137613,40.7672,-95.38,10/17/2018,6/1/1918,"SHENANDOAH, IA US",3.081404315,16,-94.876793,41.391495,0.801848821,Wiota Wind
0.9965,291.1,METERS,GHCND_USW00094989,41.99056,-93.61889,10/16/2018,10/1/1996,"AMES MUNICIPAL AIRPORT, IA US",3.081404315,16,-93.431992,42.145592,0.242828712,AG Land 3
0.9986,335,METERS,GHCND_USC00130200,42.0208,-93.7741,10/10/2018,11/1/1964,"AMES 8 WSW, IA US",3.081404315,16,-93.431992,42.145592,0.364157832,AG Land 3
0.9938,296.9,METERS,GHCND_USW00094988,42.11056,-92.91611,10/16/2018,10/1/1996,"MARSHALLTOWN MUNICIPAL AIRPORT, IA US",3.081404315,16,-93.431992,42.145592,0.517070091,AG Land 3
0.8955,406.6,METERS,GHCND_USC00133438,41.298,-94.4561,10/16/2018,1893-01-01,"GREENFIELD, IA US",2.567836929,15,-94.444794,41.393093,0.09576275,Wolverine
0.9997,291.7,METERS,GHCND_USW00014933,41.5338,-93.653,10/16/2018,7/1/1945,"DES MOINES INTERNATIONAL AIRPORT, IA US",2.567836929,15,-94.444794,41.393093,0.804199104,Wolverine
0.9986,335,METERS,GHCND_USC00130200,42.0208,-93.7741,10/10/2018,11/1/1964,"AMES 8 WSW, IA US",2.567836929,15,-94.444794,41.393093,0.918611191,Wolverine
0.9965,291.1,METERS,GHCND_USW00094989,41.99056,-93.61889,10/16/2018,10/1/1996,"AMES MUNICIPAL AIRPORT, IA US",3.081404315,16,-93.428093,42.146091,0.246157241,AG Land 2
0.9986,335,METERS,GHCND_USC00130200,42.0208,-93.7741,10/10/2018,11/1/1964,"AMES 8 WSW, IA US",3.081404315,16,-93.428093,42.146091,0.36799277,AG Land 2
0.9938,296.9,METERS,GHCND_USW00094988,42.11056,-92.91611,10/16/2018,10/1/1996,"MARSHALLTOWN MUNICIPAL AIRPORT, IA US",3.081404315,16,-93.428093,42.146091,0.513214423,AG Land 2
0.9965,291.1,METERS,GHCND_USW00094989,41.99056,-93.61889,10/16/2018,10/1/1996,"AMES MUNICIPAL AIRPORT, IA US",3.081404315,16,-93.325691,42.20639,0.364071755,AG Land 1
0.9938,296.9,METERS,GHCND_USW00094988,42.11056,-92.91611,10/16/2018,10/1/1996,"MARSHALLTOWN MUNICIPAL AIRPORT, IA US",3.081404315,16,-93.325691,42.20639,0.420642347,AG Land 1
0.9986,335,METERS,GHCND_USC00130200,42.0208,-93.7741,10/10/2018,11/1/1964,"AMES 8 WSW, IA US",3.081404315,16,-93.325691,42.20639,0.485298135,AG Land 1
0.9653,107.6,METERS,GHCND_USW00024216,40.1519,-122.2536,10/16/2018,1892-01-01,"RED BLUFF MUNICIPAL AIRPORT, CA US",1.78322009,13,-122.193886,40.111195,0.072267965,Walmart Red Bluff
1,151.5,METERS,GHCND_USW00024257,40.5175,-122.2986,10/16/2018,9/1/1986,"REDDING MUNICIPAL AIRPORT, CA US",1.78322009,13,-122.193886,40.111195,0.419581666,Walmart Red Bluff
0.9357,56.4,METERS,GHCND_USC00041715,39.6911,-121.8211,10/15/2018,1/8/1906,"CHICO UNIVERSITY FARM, CA US",1.78322009,13,-122.193886,40.111195,0.561648654,Walmart Red Bluff
0.9792,590.7,METERS,GHCND_USC00253660,40.6471,-98.3835,10/17/2018,1894-11-01,"HASTINGS 4 N, NE US",2.139864108,14,-98.334496,40.569241,0.091996825,Central Community College-Hastings
0.9973,597.7,METERS,GHCND_USW00094949,40.6005,-98.4258,10/16/2018,7/3/1996,"HASTINGS MUNICIPAL AIRPORT, NE US",2.139864108,14,-98.334496,40.569241,0.096506712,Central Community College-Hastings
0.9627,545,METERS,GHCND_USC00251684,40.5208,-98.0536,10/17/2018,7/1/1971,"CLAY CENTER, NE US",2.139864108,14,-98.334496,40.569241,0.285042266,Central Community College-Hastings
0.8955,406.6,METERS,GHCND_USC00133438,41.298,-94.4561,10/16/2018,1893-01-01,"GREENFIELD, IA US",2.567836929,15,-94.446289,41.390095,0.092616115,Meadow Ridge
0.9997,291.7,METERS,GHCND_USW00014933,41.5338,-93.653,10/16/2018,7/1/1945,"DES MOINES INTERNATIONAL AIRPORT, IA US",2.567836929,15,-94.446289,41.390095,0.806200077,Meadow Ridge
0.9986,335,METERS,GHCND_USC00130200,42.0208,-93.7741,10/10/2018,11/1/1964,"AMES 8 WSW, IA US",2.567836929,15,-94.446289,41.390095,0.921752054,Meadow Ridge
0.9972,32.9,METERS,GHCND_USW00054733,42.58417,-70.9175,10/15/2018,12/5/1998,"BEVERLY MUNICIPAL AIRPORT, MA US",1.03195607,10,-70.841103,42.716091,0.15244557,Ipswich
0.9994,9.1,METERS,GHCND_USC00193276,42.7467,-71.0426,9/30/2018,8/1/1992,"GROVELAND, MA US",1.03195607,10,-70.841103,42.716091,0.203808616,Ipswich
0.9948,25.6,METERS,GHCND_USC00194502,42.5007,-70.8644,10/15/2018,9/1/1984,"MARBLEHEAD, MA US",1.03195607,10,-70.841103,42.716091,0.216647255,Ipswich
0.9676,1645.3,METERS,GHCND_USC00058995,39.7749,-105.117,10/17/2018,2/1/1981,"WHEAT RIDGE 2, CO US",1.486016741,12,-105.220001,39.912083,0.171547024,NREL - GE
0.9015,1611.2,METERS,GHCND_USW00023062,39.7633,-104.8694,10/17/2018,5/15/1940,"DENVER STAPLETON, CO US",1.486016741,12,-105.220001,39.912083,0.380864073,NREL - GE
0.999,1793.1,METERS,GHCND_USW00093067,39.57028,-104.84889,10/16/2018,7/1/1998,"DENVER CENTENNIAL AIRPORT, CO US",1.486016741,12,-105.220001,39.912083,0.504532125,NREL - GE
0.998,190.2,METERS,GHCND_USW00014607,46.8705,-68.0173,10/16/2018,1/16/1939,"CARIBOU WEATHER FORECAST OFFICE, ME US",2.567836929,15,-67.813553,46.536983,0.390827877,Mars Hill
0.9631,145.1,METERS,GHCND_USW00014609,46.1185,-67.7928,10/16/2018,6/1/1948,"HOULTON AIRPORT, ME US",2.567836929,15,-67.813553,46.536983,0.418997265,Mars Hill
0.9809,245,METERS,GHCND_CA00810I001,47.15,-67.8333,2/5/2017,8/16/2001,"ST LEONARD CS, CA",2.567836929,15,-67.813553,46.536983,0.613334971,Mars Hill
0.9749,307.8,METERS,GHCND_USC00136200,42.6467,-91.9131,10/31/2005,5/1/1923,"OELWEIN 2 S, IA US",2.139864108,14,-91.817696,43.309093,0.669228219,Luther College
0.9784,201.2,METERS,GHCND_USC00478589,43.9994,-91.4378,10/17/2018,11/1/1936,"TREMPEALEAU DAM 6, MN US",2.139864108,14,-91.817696,43.309093,0.787937006,Luther College
0.9963,198.7,METERS,GHCND_USW00014920,43.8788,-91.2527,10/16/2018,4/1/1938,"LA CROSSE MUNICIPAL AIRPORT, WI US",2.139864108,14,-91.817696,43.309093,0.802363101,Luther College
0.6654,833.6,METERS,GHCND_USC00045756,35.0492,-118.1619,10/17/2018,1/1/1904,"MOJAVE, CA US",1.486016741,12,-118.364388,35.034294,0.203035906,Oak Creek Energy Systems
0.9921,712.6,METERS,GHCND_USW00003159,34.7411,-118.2116,10/16/2018,4/16/1974,"LANCASTER, CA US",1.486016741,12,-118.364388,35.034294,0.330615932,Oak Creek Energy Systems
0.981,1374.6,METERS,GHCND_USW00023187,34.7436,-118.7242,10/16/2018,1/1/1948,"SANDBERG, CA US",1.486016741,12,-118.364388,35.034294,0.462566403,Oak Creek Energy Systems
0.9294,446.2,METERS,GHCND_USW00014912,48.1069,-98.868,7/2/2014,1/1/1921,"DEVILS LAKE KDLR, ND US",3.081404315,16,-98.888092,48.166393,0.062794152,Lake Region State College Wind Turbine
0.9368,475.5,METERS,GHCND_USC00321362,47.5088,-99.1211,10/11/2018,4/19/1967,"CARRINGTON 4 N, ND US",3.081404315,16,-98.888092,48.166393,0.697654128,Lake Region State College Wind Turbine
0.9012,492.3,METERS,GHCND_USC00324958,48.7622,-98.3447,10/17/2018,1897-04-01,"LANGDON EXPERIMENTAL FARM, ND US",3.081404315,16,-98.888092,48.166393,0.806387529,Lake Region State College Wind Turbine
0.9831,22.6,METERS,GHCND_USW00023233,36.6636,-121.6081,10/16/2018,6/14/1930,"SALINAS AIRPORT, CA US",1.78322009,13,-121.451797,36.50515,0.222569158,Taylor Farms
0.5739,50.3,METERS,GHCND_USW00023259,36.58806,-121.84528,10/16/2018,12/1/1968,"MONTEREY PENINSUL AIRPORT, CA US",1.78322009,13,-121.451797,36.50515,0.40212304,Taylor Farms
0.9938,48.8,METERS,GHCND_USW00023277,36.93583,-121.78861,10/16/2018,7/19/1998,"WATSONVILLE MUNICIPAL AIRPORT, CA US",1.78322009,13,-121.451797,36.50515,0.546743321,Taylor Farms
0.985,18.6,METERS,GHCND_USC00049001,37.79589,-121.58319,10/16/2018,2/1/1955,"TRACY PUMPING PLANT, CA US",1.486016741,12,-121.35656,37.616653,0.288941273,Teichert Aggregates
0.9016,7.9,METERS,GHCND_USW00023237,37.8891,-121.2258,10/16/2018,2/20/1941,"STOCKTON METROPOLITAN AIRPORT, CA US",1.486016741,12,-121.35656,37.616653,0.302201167,Teichert Aggregates
0.8892,22.3,METERS,GHCND_USW00023258,37.6241,-120.9505,10/16/2018,3/1/1906,"MODESTO CITY CO AIRPORT, CA US",1.486016741,12,-121.35656,37.616653,0.406128282,Teichert Aggregates
0.9812,1140,METERS,GHCND_USC00104670,42.7325,-114.5192,9/20/2018,9/1/1915,"JEROME, ID US",2.567836929,15,-114.966805,42.88174038,0.471829339,Thousand Springs
0.9754,1233.8,METERS,GHCND_USW00004110,42.72667,-114.45639,10/16/2018,2/11/1997,"JEROME CO AIRPORT, ID US",2.567836929,15,-114.966805,42.88174038,0.533451304,Thousand Springs
0.9933,1265.2,METERS,GHCND_USW00094178,42.48194,-114.48694,10/16/2018,6/8/1997,"TWIN FALLS SUN VALLEY REGIONAL AIRPORT, ID US",2.567836929,15,-114.966805,42.88174038,0.624588471,Thousand Springs
0.6509,363.9,METERS,GHCND_USW00014763,42.42722,-73.28917,10/16/2018,6/1/1925,"PITTSFIELD MUNICIPAL AIRPORT, MA US",1.238347284,11,-73.292801,42.543793,0.116629535,Jiminy Peak Ski Resort
0.7574,195.1,METERS,GHCND_USW00054768,42.69728,-73.16967,10/16/2018,10/1/1987,"NORTH ADAMS HARRIMAN AIRPORT, MA US",1.238347284,11,-73.292801,42.543793,0.196772717,Jiminy Peak Ski Resort
0.8409,338.3,METERS,GHCND_USC00436500,42.79167,-73.22278,7/20/2013,1/11/1975,"POWNAL 1 NE, VT US",1.238347284,11,-73.292801,42.543793,0.257577071,Jiminy Peak Ski Resort
0.9199,1287.8,METERS,GHCND_USW00024127,40.7781,-111.9694,10/16/2018,11/1/1941,"SALT LAKE CITY INTERNATIONAL AIRPORT, UT US",1.78322009,13,-112.369781,40.501865,0.48642648,Tooele Army Depot II
0.7803,1373.1,METERS,GHCND_USC00428973,40.3603,-111.8972,10/15/2018,6/1/1904,"UTAH LAKE LEHI, UT US",1.78322009,13,-112.369781,40.501865,0.493328948,Tooele Army Depot II
0.7602,1335,METERS,GHCND_USC00422726,41.0203,-111.9328,9/30/2016,7/1/1948,"FARMINGTON 3 NW, UT US",1.78322009,13,-112.369781,40.501865,0.67803189,Tooele Army Depot II
0.9999,373.4,METERS,GHCND_USW00014940,43.1544,-93.3269,10/16/2018,1/1/1948,"MASON CITY MUNICIPAL AIRPORT, IA US",3.081404315,16,-92.840591,43.292492,0.505535205,Osage Utilities
0.8179,397.5,METERS,GHCND_USW00014925,43.9041,-92.4916,10/16/2018,1893-01-01,"ROCHESTER INTERNATIONAL AIRPORT, MN US",3.081404315,16,-92.840591,43.292492,0.704172609,Osage Utilities
0.9983,264.6,METERS,GHCND_USW00094910,42.5544,-92.4011,10/16/2018,3/1/1950,"WATERLOO MUNICIPAL AIRPORT, IA US",3.081404315,16,-92.840591,43.292492,0.859029766,Osage Utilities
0.9867,467.9,METERS,GHCND_USC00253065,40.6558,-97.2208,10/17/2018,1/1/1925,"FRIEND 3 E, NE US",1.486016741,12,-97.187469,40.895187,0.241696279,City of Seward
0.9749,445,METERS,GHCND_USC00252020,40.6092,-96.872,10/17/2018,1893-07-01,"CRETE 4 ESE, NE US",1.486016741,12,-97.187469,40.895187,0.425804244,City of Seward
0.692,362.7,METERS,GHCND_USW00014939,40.8508,-96.7475,10/16/2018,10/1/1942,"LINCOLN AIRPORT, NE US",1.486016741,12,-97.187469,40.895187,0.442202359,City of Seward
0.9812,1140,METERS,GHCND_USC00104670,42.7325,-114.5192,9/20/2018,9/1/1915,"JEROME, ID US",2.567836929,15,-114.969284,42.836908,0.462035321,Tuana Gulch
0.9754,1233.8,METERS,GHCND_USW00004110,42.72667,-114.45639,10/16/2018,2/11/1997,"JEROME CO AIRPORT, ID US",2.567836929,15,-114.969284,42.836908,0.52460716,Tuana Gulch
0.9933,1265.2,METERS,GHCND_USW00094178,42.48194,-114.48694,10/16/2018,6/8/1997,"TWIN FALLS SUN VALLEY REGIONAL AIRPORT, ID US",2.567836929,15,-114.969284,42.836908,0.598880635,Tuana Gulch
0.8955,406.6,METERS,GHCND_USC00133438,41.298,-94.4561,10/16/2018,1893-01-01,"GREENFIELD, IA US",2.567836929,15,-94.488495,41.290493,0.033253437,Greenfield Wind
0.9997,291.7,METERS,GHCND_USW00014933,41.5338,-93.653,10/16/2018,7/1/1945,"DES MOINES INTERNATIONAL AIRPORT, IA US",2.567836929,15,-94.488495,41.290493,0.870201236,Greenfield Wind
0.987,345.9,METERS,GHCND_USW00094991,40.6306,-93.9008,10/16/2018,1/1/1998,"LAMONI MUNICIPAL AIRPORT, IA US",2.567836929,15,-94.488495,41.290493,0.883653883,Greenfield Wind
0.8412,570,METERS,GHCND_USC00355734,45.4825,-120.7236,10/11/2018,1897-11-01,"MORO, OR US",2.567836929,15,-120.617287,45.60734417,0.163977193,PaTu Wind Farm
0.9975,71.6,METERS,GHCND_USW00024219,45.6194,-121.1661,10/15/2018,7/1/1948,"DALLESPORT AIRPORT, WA US",2.567836929,15,-120.617287,45.60734417,0.5489454,PaTu Wind Farm
0.9752,152.4,METERS,GHCND_USC00354003,45.6847,-121.5175,10/9/2018,1893-01-01,"HOOD RIVER EXPERIMENT STATION, OR US",2.567836929,15,-120.617287,45.60734417,0.903530503,PaTu Wind Farm
0.975,805,METERS,GHCND_USW00003164,32.6261,-116.4681,10/16/2018,2/1/1998,"CAMPO ASOS, CA US",2.139864108,14,-116.351318,32.701496,0.139005728,Golden Acorn Casino
0.9953,157,METERS,GHCND_USW00003178,32.57222,-116.97944,10/16/2018,2/1/1997,"SAN DIEGO BROWN FIELD, CA US",2.139864108,14,-116.351318,32.701496,0.641287401,Golden Acorn Casino
0.9924,424.6,METERS,GHCND_USW00053120,33.0375,-116.91583,10/16/2018,4/16/1998,"RAMONA AIRPORT, CA US",2.139864108,14,-116.351318,32.701496,0.656941768,Golden Acorn Casino
0.9289,787,METERS,GHCND_USW00013985,37.7686,-99.9678,10/16/2018,4/1/1909,"DODGE CITY REGIONAL AIRPORT, KS US",3.081404315,16,-99.707291,37.875694,0.281663033,Spearville I
0.9731,650.7,METERS,GHCND_USC00141383,38.7978,-99.723,10/17/2018,8/1/1949,"CEDAR BLUFF DAM, KS US",3.081404315,16,-99.707291,37.875694,0.9222398,Spearville I
0.9407,878.4,METERS,GHCND_USW00023064,37.92722,-100.72472,10/16/2018,3/1/1947,"GARDEN CITY REGIONAL AIRPORT, KS US",3.081404315,16,-99.707291,37.875694,1.018732889,Spearville I
0.9812,1140,METERS,GHCND_USC00104670,42.7325,-114.5192,9/20/2018,9/1/1915,"JEROME, ID US",2.567836929,15,-114.949585,42.85897971,0.448584849,Fossil Gulch Wind Park (Hagerman)
0.9754,1233.8,METERS,GHCND_USW00004110,42.72667,-114.45639,10/16/2018,2/11/1997,"JEROME CO AIRPORT, ID US",2.567836929,15,-114.949585,42.85897971,0.510634085,Fossil Gulch Wind Park (Hagerman)
0.9933,1265.2,METERS,GHCND_USW00094178,42.48194,-114.48694,10/16/2018,6/8/1997,"TWIN FALLS SUN VALLEY REGIONAL AIRPORT, ID US",2.567836929,15,-114.949585,42.85897971,0.596824381,Fossil Gulch Wind Park (Hagerman)
0.8955,406.6,METERS,GHCND_USC00133438,41.298,-94.4561,10/16/2018,1893-01-01,"GREENFIELD, IA US",2.567836929,15,-94.570694,41.339592,0.121908487,Forward Fontanelle
0.9899,387.1,METERS,GHCND_USC00133632,41.6452,-95.3339,2/24/2016,1899-02-01,"HARLAN, IA US",2.567836929,15,-94.570694,41.339592,0.822118999,Forward Fontanelle
0.987,345.9,METERS,GHCND_USW00094991,40.6306,-93.9008,10/16/2018,1/1/1998,"LAMONI MUNICIPAL AIRPORT, IA US",2.567836929,15,-94.570694,41.339592,0.975411517,Forward Fontanelle
0.8955,406.6,METERS,GHCND_USC00133438,41.298,-94.4561,10/16/2018,1893-01-01,"GREENFIELD, IA US",2.567836929,15,-94.434891,41.227093,0.074010974,Cumberland Rose
0.987,345.9,METERS,GHCND_USW00094991,40.6306,-93.9008,10/16/2018,1/1/1998,"LAMONI MUNICIPAL AIRPORT, IA US",2.567836929,15,-94.434891,41.227093,0.800660412,Cumberland Rose
0.9997,291.7,METERS,GHCND_USW00014933,41.5338,-93.653,10/16/2018,7/1/1945,"DES MOINES INTERNATIONAL AIRPORT, IA US",2.567836929,15,-94.434891,41.227093,0.839894469,Cumberland Rose
0.988,519.1,METERS,GHCND_USW00094943,43.76667,-99.31833,6/30/2014,2/1/1998,"CHAMBERLAIN MUNICIPAL AIRPORT, SD US",2.567836929,15,-98.740089,43.903591,0.594230607,Crow Lake
0.9963,395.9,METERS,GHCND_USW00094950,43.7743,-98.0384,10/16/2018,9/1/1999,"MITCHELL MUNICIPAL AIRPORT, SD US",2.567836929,15,-98.740089,43.903591,0.713500957,Crow Lake
0.9998,390.1,METERS,GHCND_USW00014936,44.3981,-98.2231,10/16/2018,1881-07-01,"HURON REGIONAL AIRPORT, SD US",2.567836929,15,-98.740089,43.903591,0.715413711,Crow Lake
0.9831,22.6,METERS,GHCND_USW00023233,36.6636,-121.6081,10/16/2018,6/14/1930,"SALINAS AIRPORT, CA US",2.139864108,14,-121.340164,36.42094,0.361488002,City of Soledad Water Reclamation Facility
0.5739,50.3,METERS,GHCND_USW00023259,36.58806,-121.84528,10/16/2018,12/1/1968,"MONTEREY PENINSUL AIRPORT, CA US",2.139864108,14,-121.340164,36.42094,0.532044423,City of Soledad Water Reclamation Facility
0.9938,48.8,METERS,GHCND_USW00023277,36.93583,-121.78861,10/16/2018,7/19/1998,"WATSONVILLE MUNICIPAL AIRPORT, CA US",2.139864108,14,-121.340164,36.42094,0.682799771,City of Soledad Water Reclamation Facility
0.8955,406.6,METERS,GHCND_USC00133438,41.298,-94.4561,10/16/2018,1893-01-01,"GREENFIELD, IA US",2.567836929,15,-94.485191,41.290691,0.029995129,Sky Volt
0.9997,291.7,METERS,GHCND_USW00014933,41.5338,-93.653,10/16/2018,7/1/1945,"DES MOINES INTERNATIONAL AIRPORT, IA US",2.567836929,15,-94.485191,41.290691,0.866973959,Sky Volt
0.987,345.9,METERS,GHCND_USW00094991,40.6306,-93.9008,10/16/2018,1/1/1998,"LAMONI MUNICIPAL AIRPORT, IA US",2.567836929,15,-94.485191,41.290691,0.881608172,Sky Volt
