datacoverage,elevation,elevationUnit,id,latitude,longitude,maxdate,mindate,name,square_diagonal,query_count,query_long,query_lat,dist_from_center,p_name
0.9995,304.8,METERS,GHCND_USW00013969,36.73667,-97.10194,10/16/2018,1/1/1948,"PONCA CITY MUNICIPAL AIRPORT, OK US",2.139864108,14,-97.30629718,36.57236456,0.262217721,Thunder Ranch
0.9872,299.9,METERS,GHCND_USW00003965,36.1624,-97.0894,10/16/2018,11/1/1996,"STILLWATER REGIONAL AIRPORT, OK US",2.139864108,14,-97.30629718,36.57236456,0.463805265,Thunder Ranch
0.9675,272.8,METERS,GHCND_USC00348501,36.1175,-97.095,10/17/2018,1893-01-01,"STILLWATER 2 W, OK US",2.139864108,14,-97.30629718,36.57236456,0.501545873,Thunder Ranch
0.8607,1309.4,METERS,GHCND_USW00024030,41.0993,-102.9863,10/16/2018,1/1/1948,"SIDNEY MUNICIPAL AIRPORT, NE US",1.78322009,13,-103.3222277,40.96195528,0.362920104,Peetz Table
0.9565,1316.7,METERS,GHCND_USC00257830,41.2294,-103.0214,9/30/2018,12/1/1908,"SIDNEY 6 NNW, NE US",1.78322009,13,-103.3222277,40.96195528,0.402522039,Peetz Table
0.9988,1130.5,METERS,GHCND_USC00051996,40.86,-102.803,10/17/2018,3/1/1996,"CROOK, CO US",1.78322009,13,-103.3222277,40.96195528,0.529142986,Peetz Table
0.9804,545.6,METERS,GHCND_USW00013962,32.4105,-99.6822,10/16/2018,8/1/1946,"ABILENE REGIONAL AIRPORT, TX US",2.567836929,15,-100.1739645,32.25311485,0.516335579,Horse Hollow
0.9411,594.1,METERS,GHCND_USC00414278,31.84555,-99.56068,10/17/2018,7/1/1953,"HORDS CREEK DAM, TX US",2.567836929,15,-100.1739645,32.25311485,0.736360654,Horse Hollow
0.8222,598.6,METERS,GHCND_USC00416499,31.45389,-100.49333,1/31/2008,12/1/1975,"O C FISHER DAM, TX US",2.567836929,15,-100.1739645,32.25311485,0.860671058,Horse Hollow
0.8793,786.4,METERS,GHCND_USW00024012,46.7994,-102.7972,10/16/2018,11/14/1938,"DICKINSON THEODORE ROOSEVELT REGIONAL AIRPORT, ND US",3.081404315,16,-102.7563893,46.65634827,0.148759234,Brady Wind I
0.9498,749.8,METERS,GHCND_USC00322188,46.89138,-102.81055,2/19/2016,1893-01-01,"DICKINSON EXPERIMENTAL STATION, ND US",3.081404315,16,-102.7563893,46.65634827,0.241191406,Brady Wind I
0.995,824.5,METERS,GHCND_USW00094038,46.01389,-102.65472,10/16/2018,7/1/1996,"HETTINGER MUNICIPAL AIRPORT, ND US",3.081404315,16,-102.7563893,46.65634827,0.650453133,Brady Wind I
0.9704,414.5,METERS,GHCND_USW00013980,37.155,-98.0282,10/17/2018,1896-10-01,"ANTHONY, KS US",2.567836929,15,-98.25266603,37.3711574,0.311623199,Flat Ridge 2
0.9843,467.9,METERS,GHCND_USW00003957,37.2839,-98.5528,10/16/2018,2/5/1998,"MEDICINE LODGE 1 E, KS US",2.567836929,15,-98.25266603,37.3711574,0.312560803,Flat Ridge 2
0.9526,365.8,METERS,GHCND_USC00343740,36.7425,-98.133,9/10/2018,3/12/1946,"GREAT SALT PLAINS DAM, OK US",2.567836929,15,-98.25266603,37.3711574,0.639945375,Flat Ridge 2
0.9084,502.9,METERS,GHCND_USC00253075,41.3594,-97.9761,11/30/2013,3/1/1901,"FULLERTON, NE US",2.567836929,15,-98.11013231,41.93217061,0.588243855,Prairie Breeze
0.9788,515.1,METERS,GHCND_USC00256396,42.3691,-97.5983,7/31/2013,9/1/2008,"OSMOND NUMBER 1, NE US",2.567836929,15,-98.11013231,41.93217061,0.672963304,Prairie Breeze
1,472.7,METERS,GHCND_USW00014941,41.9855,-97.4352,10/16/2018,10/1/1945,"NORFOLK KARL STEFAN MEMORIAL AIRPORT, NE US",2.567836929,15,-98.11013231,41.93217061,0.677035931,Prairie Breeze
0.9936,930.9,METERS,GHCND_USW00003024,35.695,-101.395,10/16/2018,6/1/1997,"BORGER HUTCHINSON CO AIRPORT, TX US",3.697685178,17,-101.2931729,35.43090879,0.283042266,Panhandle Wind 1
0.9952,894.9,METERS,GHCND_USC00418040,35.7048,-101.5492,10/17/2018,10/1/1993,"SANFORD DAM, TX US",3.697685178,17,-101.2931729,35.43090879,0.374921679,Panhandle Wind 1
0.9492,1098.5,METERS,GHCND_USW00023047,35.2295,-101.7042,10/16/2018,3/1/1943,"AMARILLO AIRPORT, TX US",3.697685178,17,-101.2931729,35.43090879,0.457721273,Panhandle Wind 1
0.9902,330.7,METERS,GHCND_USC00341750,35.0488,-97.9158,10/15/2018,6/1/1953,"CHICKASHA EXPERIMENT STATION, OK US",2.567836929,15,-97.80480764,34.70015097,0.365889945,Rush Springs Wind Energy Center
0.9914,325.8,METERS,GHCND_USW00003950,34.5584,-98.4172,10/16/2018,10/1/1996,"LAWTON MUNICIPAL AIRPORT, OK US",2.567836929,15,-97.80480764,34.70015097,0.628583914,Rush Springs Wind Energy Center
0.9213,391.7,METERS,GHCND_USW00013967,35.3889,-97.6006,10/16/2018,12/14/1941,"OKLAHOMA CITY WILL ROGERS WORLD AIRPORT, OK US",2.567836929,15,-97.80480764,34.70015097,0.718384293,Rush Springs Wind Energy Center
0.9704,414.5,METERS,GHCND_USW00013980,37.155,-98.0282,10/17/2018,1896-10-01,"ANTHONY, KS US",2.567836929,15,-98.23042013,37.35392928,0.28366501,Flat Ridge 2 Expansion
0.9843,467.9,METERS,GHCND_USW00003957,37.2839,-98.5528,10/16/2018,2/5/1998,"MEDICINE LODGE 1 E, KS US",2.567836929,15,-98.23042013,37.35392928,0.329898293,Flat Ridge 2 Expansion
0.9526,365.8,METERS,GHCND_USC00343740,36.7425,-98.133,9/10/2018,3/12/1946,"GREAT SALT PLAINS DAM, OK US",2.567836929,15,-98.23042013,37.35392928,0.619141702,Flat Ridge 2 Expansion
0.9526,365.8,METERS,GHCND_USC00343740,36.7425,-98.133,9/10/2018,3/12/1946,"GREAT SALT PLAINS DAM, OK US",1.78322009,13,-97.69635806,36.57560831,0.467449488,Chisholm View
0.9995,304.8,METERS,GHCND_USW00013969,36.73667,-97.10194,10/16/2018,1/1/1948,"PONCA CITY MUNICIPAL AIRPORT, OK US",1.78322009,13,-97.69635806,36.57560831,0.615852008,Chisholm View
0.9704,414.5,METERS,GHCND_USW00013980,37.155,-98.0282,10/17/2018,1896-10-01,"ANTHONY, KS US",1.78322009,13,-97.69635806,36.57560831,0.6676929,Chisholm View
0.9843,467.9,METERS,GHCND_USW00003957,37.2839,-98.5528,10/16/2018,2/5/1998,"MEDICINE LODGE 1 E, KS US",2.567836929,15,-98.27077297,37.55616445,0.392004054,Kingman Wind Energy Center
0.9704,414.5,METERS,GHCND_USW00013980,37.155,-98.0282,10/17/2018,1896-10-01,"ANTHONY, KS US",2.567836929,15,-98.27077297,37.55616445,0.468801195,Kingman Wind Energy Center
0.4685,470.3,METERS,GHCND_USW00013986,38.06528,-97.86056,10/15/2018,1/1/1948,"HUTCHINSON MUNICIPAL AIRPORT, KS US",2.567836929,15,-98.27077297,37.55616445,0.653814439,Kingman Wind Energy Center
0.9252,765,METERS,GHCND_USW00023041,32.2443,-101.4537,10/17/2018,1/1/1948,"BIG SPRING, TX US",3.697685178,17,-100.9331986,31.9408203,0.602512747,Capricorn Ridge
0.8222,598.6,METERS,GHCND_USC00416499,31.45389,-100.49333,1/31/2008,12/1/1975,"O C FISHER DAM, TX US",3.697685178,17,-100.9331986,31.9408203,0.656190158,Capricorn Ridge
0.2272,576.1,METERS,GHCND_USC00417944,31.37083,-100.49432,10/17/2018,11/1/1947,"SAN ANGELO WEATHER FORECAST OFFICE, TX US",3.697685178,17,-100.9331986,31.9408203,0.719377083,Capricorn Ridge
0.8793,786.4,METERS,GHCND_USW00024012,46.7994,-102.7972,10/16/2018,11/14/1938,"DICKINSON THEODORE ROOSEVELT REGIONAL AIRPORT, ND US",3.081404315,16,-102.7963987,46.60255038,0.196851253,Brady Wind II
0.9498,749.8,METERS,GHCND_USC00322188,46.89138,-102.81055,2/19/2016,1893-01-01,"DICKINSON EXPERIMENTAL STATION, ND US",3.081404315,16,-102.7963987,46.60255038,0.289176087,Brady Wind II
0.995,824.5,METERS,GHCND_USW00094038,46.01389,-102.65472,10/16/2018,7/1/1996,"HETTINGER MUNICIPAL AIRPORT, ND US",3.081404315,16,-102.7963987,46.60255038,0.605469983,Brady Wind II
0.9667,1638,METERS,GHCND_USW00093010,39.275,-103.666,10/16/2018,8/1/1948,"LIMON, CO US",2.567836929,15,-103.641999,39.39627013,0.123622369,Limon I
0.293,1531.6,METERS,GHCND_USC00054172,39.1438,-103.4897,10/17/2018,1893-01-01,"HUGO 1 NW, CO US",2.567836929,15,-103.641999,39.39627013,0.294849391,Limon I
0.9996,1333.2,METERS,GHCND_USC00059213,40.075,-103.5677,10/17/2018,6/1/1993,"WOODROW 6 NNE, CO US",2.567836929,15,-103.641999,39.39627013,0.682784436,Limon I
0.9743,266.1,METERS,GHCND_USC00112223,41.9342,-88.7756,10/17/2018,3/1/1966,"DE KALB, IL US",2.139864108,14,-88.88534052,41.81195997,0.16427297,Lee&DeKalb
0.9985,216.4,METERS,GHCND_USW00004808,41.77,-88.48139,10/15/2018,10/8/1998,"CHICAGO AURORA MUNICIPAL AIRPORT, IL US",2.139864108,14,-88.88534052,41.81195997,0.406123952,Lee&DeKalb
1,222.5,METERS,GHCND_USW00094822,42.1927,-89.093,10/16/2018,1/1/1951,"ROCKFORD GREATER ROCKFORD AIRPORT, IL US",2.139864108,14,-88.88534052,41.81195997,0.433688173,Lee&DeKalb
0.8602,503.2,METERS,GHCND_USW00024011,46.7825,-100.7572,10/16/2018,7/1/1936,"BISMARCK MUNICIPAL AIRPORT, ND US",2.567836929,15,-100.6676132,47.11941224,0.34861963,Wilton Wind Energy Center II
0.9915,533.4,METERS,GHCND_USC00325479,46.8127,-100.9097,9/4/2018,7/16/1913,"MANDAN EXPERIMENT STATION, ND US",2.567836929,15,-100.6676132,47.11941224,0.390740832,Wilton Wind Energy Center II
0.9203,577,METERS,GHCND_USC00328840,47.5213,-100.8883,10/7/2018,9/1/1912,"TURTLE LAKE, ND US",2.567836929,15,-100.6676132,47.11941224,0.458493635,Wilton Wind Energy Center II
0.995,205.7,METERS,GHCND_USC00116344,40.1101,-87.9567,10/17/2018,11/1/2001,"OGDEN, IL US",2.139864108,14,-87.8937719,40.21892957,0.125713252,California Ridge
0.7581,230.1,METERS,GHCND_USW00014806,40.313,-88.1598,10/15/2018,1893-01-01,"RANTOUL, IL US",2.139864108,14,-87.8937719,40.21892957,0.282170504,California Ridge
0.9988,219.8,METERS,GHCND_USC00118740,40.084,-88.2404,10/17/2018,8/1/1902,"CHAMPAIGN 3 S, IL US",2.139864108,14,-87.8937719,40.21892957,0.371963745,California Ridge
0.9936,930.9,METERS,GHCND_USW00003024,35.695,-101.395,10/16/2018,6/1/1997,"BORGER HUTCHINSON CO AIRPORT, TX US",3.081404315,16,-100.5386812,35.65375535,0.857311489,Miami
0.6758,667.8,METERS,GHCND_USW00013975,36.2967,-99.7689,10/16/2018,5/1/1904,"GAGE AIRPORT, OK US",3.081404315,16,-100.5386812,35.65375535,1.002966072,Miami
0.9952,894.9,METERS,GHCND_USC00418040,35.7048,-101.5492,10/17/2018,10/1/1993,"SANFORD DAM, TX US",3.081404315,16,-100.5386812,35.65375535,1.011807184,Miami
0.5464,585.8,METERS,GHCND_USW00003932,35.3568,-99.2042,10/16/2018,8/17/1958,"CLINTON SHERMAN AIRPORT, OK US",3.081404315,16,-99.68286155,35.47865635,0.493928988,Elk City II
0.9498,464.8,METERS,GHCND_USC00340184,34.8847,-99.2964,10/17/2018,8/1/1945,"ALTUS DAM, OK US",3.081404315,16,-99.68286155,35.47865635,0.708616024,Elk City II
0.995,474.3,METERS,GHCND_USW00093986,34.9894,-99.0525,10/16/2018,1/1/1910,"HOBART MUNICIPAL AIRPORT, OK US",3.081404315,16,-99.68286155,35.47865635,0.797952036,Elk City II
0.996,951.9,METERS,GHCND_USW00003030,36.68167,-101.50528,10/16/2018,12/1/1998,"GUYMON MUNICIPAL AIRPORT, OK US",3.081404315,16,-100.8437824,36.51791281,0.681465704,Balko Wind
0.8825,999.1,METERS,GHCND_USC00343628,36.5913,-101.618,10/14/2018,2/15/1910,"GOODWELL RESEARCH STATION, OK US",3.081404315,16,-100.8437824,36.51791281,0.777687976,Balko Wind
0.9936,930.9,METERS,GHCND_USW00003024,35.695,-101.395,10/16/2018,6/1/1997,"BORGER HUTCHINSON CO AIRPORT, TX US",3.081404315,16,-100.8437824,36.51791281,0.990467746,Balko Wind
0.293,1531.6,METERS,GHCND_USC00054172,39.1438,-103.4897,10/17/2018,1893-01-01,"HUGO 1 NW, CO US",2.567836929,15,-103.3962753,39.35438931,0.230382364,Limon III
0.9667,1638,METERS,GHCND_USW00093010,39.275,-103.666,10/16/2018,8/1/1948,"LIMON, CO US",2.567836929,15,-103.3962753,39.35438931,0.281165586,Limon III
0.9996,1333.2,METERS,GHCND_USC00059213,40.075,-103.5677,10/17/2018,6/1/1993,"WOODROW 6 NNE, CO US",2.567836929,15,-103.3962753,39.35438931,0.740720061,Limon III
0.8421,275.5,METERS,GHCND_USC00237862,39.3903,-94.5553,10/17/2018,11/1/1981,"SMITHVILLE LAKE, MO US",2.139864108,14,-94.45409846,39.83376456,0.454865438,Osborn
0.667,249.3,METERS,GHCND_USW00013993,39.7736,-94.9233,10/16/2018,1/1/1948,"ST JOSEPH ROSECRANS MEMORIAL AIRPORT, MO US",2.139864108,14,-94.45409846,39.83376456,0.473043189,Osborn
1,306.3,METERS,GHCND_USW00003947,39.2972,-94.7306,10/16/2018,10/1/1972,"KANSAS CITY INTERNATIONAL AIRPORT, MO US",2.139864108,14,-94.45409846,39.83376456,0.603617948,Osborn
0.9867,460.9,METERS,GHCND_USC00148946,38.9667,-98.489,10/17/2018,8/1/1964,"WILSON LAKE, KS US",2.139864108,14,-98.33307847,38.84524076,0.19764582,Post Rock
0.8924,454.8,METERS,GHCND_USC00144178,38.6078,-97.9596,10/17/2018,3/1/1941,"KANOPOLIS LAKE, KS US",2.139864108,14,-98.33307847,38.84524076,0.442565569,Post Rock
0.9887,568.1,METERS,GHCND_USW00093997,38.87611,-98.80917,10/15/2018,9/1/1949,"RUSSELL MUNICIPAL AIRPORT, KS US",2.139864108,14,-98.33307847,38.84524076,0.477091244,Post Rock
0.9936,930.9,METERS,GHCND_USW00003024,35.695,-101.395,10/16/2018,6/1/1997,"BORGER HUTCHINSON CO AIRPORT, TX US",4.437222213,18,-101.1939246,35.25837464,0.480700545,Grandview I
0.9492,1098.5,METERS,GHCND_USW00023047,35.2295,-101.7042,10/16/2018,3/1/1943,"AMARILLO AIRPORT, TX US",4.437222213,18,-101.1939246,35.25837464,0.511091675,Grandview I
0.9952,894.9,METERS,GHCND_USC00418040,35.7048,-101.5492,10/17/2018,10/1/1993,"SANFORD DAM, TX US",4.437222213,18,-101.1939246,35.25837464,0.570540267,Grandview I
0.9285,484.6,METERS,GHCND_USC00341445,36.06167,-98.59,8/31/2002,5/6/1943,"CANTON, OK US",2.567836929,15,-98.99346985,36.10693736,0.406001302,Seiling
0.9749,618.7,METERS,GHCND_USC00343304,36.54417,-99.535,3/31/2012,7/1/1940,"FORT SUPPLY, OK US",2.567836929,15,-98.99346985,36.10693736,0.696008104,Seiling
0.5464,585.8,METERS,GHCND_USW00003932,35.3568,-99.2042,10/16/2018,8/17/1958,"CLINTON SHERMAN AIRPORT, OK US",2.567836929,15,-98.99346985,36.10693736,0.779174725,Seiling
0.9989,201.2,METERS,GHCND_USW00014845,43.53306,-84.07972,10/16/2018,1898-01-01,"SAGINAW MBS INTERNATIONAL AIRPORT, MI US",2.567836929,15,-84.52403299,43.39106589,0.466450809,Gratiot County
0.8192,236.2,METERS,GHCND_USW00014828,43.9758,-84.4908,10/17/2018,1892-12-01,"GLADWIN, MI US",2.567836929,15,-84.52403299,43.39106589,0.585677737,Gratiot County
0.9327,261.8,METERS,GHCND_USW00014836,42.7761,-84.5997,10/16/2018,1/1/1948,"LANSING CAPITAL CITY AIRPORT, MI US",2.567836929,15,-84.52403299,43.39106589,0.619603536,Gratiot County
0.9862,1351.8,METERS,GHCND_USC00291963,34.5988,-103.2161,10/17/2018,6/21/1949,"CLOVIS 13 N, NM US",3.081404315,16,-102.7105074,34.71607396,0.519015495,Mariah North Wind
0.473,1165.9,METERS,GHCND_USC00299284,35.36,-103.4433,9/30/2015,2/1/1965,"UTE DAM, NM US",3.081404315,16,-102.7105074,34.71607396,0.975513085,Mariah North Wind
0.6399,1239,METERS,GHCND_USW00023048,35.18222,-103.60306,10/15/2018,1/1/1948,"TUCUMCARI MUNICIPAL AIRPORT, NM US",3.081404315,16,-102.7105074,34.71607396,1.00694703,Mariah North Wind
0.9937,368.8,METERS,GHCND_USC00131442,42.7572,-95.5377,10/17/2018,11/13/1921,"CHEROKEE, IA US",2.567836929,15,-95.41686616,42.31372874,0.459638529,Ida Grove
0.9907,426.7,METERS,GHCND_USC00131277,42.0633,-95.8363,1/16/2018,7/1/1948,"CASTANA EXPERIMENTAL FARM, IA US",2.567836929,15,-95.41686616,42.31372874,0.488507218,Ida Grove
0.9899,387.1,METERS,GHCND_USC00133632,41.6452,-95.3339,2/24/2016,1899-02-01,"HARLAN, IA US",2.567836929,15,-95.41686616,42.31372874,0.673657226,Ida Grove
0.9197,880.9,METERS,GHCND_USC00142980,37.993,-100.8121,10/17/2018,8/1/1948,"GARDEN CITY EXPERIMENTAL STATION, KS US",3.081404315,16,-101.0898387,37.63753567,0.451102709,Buffalo Dunes
0.9407,878.4,METERS,GHCND_USW00023064,37.92722,-100.72472,10/16/2018,3/1/1947,"GARDEN CITY REGIONAL AIRPORT, KS US",3.081404315,16,-101.0898387,37.63753567,0.466077944,Buffalo Dunes
0.996,951.9,METERS,GHCND_USW00003030,36.68167,-101.50528,10/16/2018,12/1/1998,"GUYMON MUNICIPAL AIRPORT, OK US",3.081404315,16,-101.0898387,37.63753567,1.042243104,Buffalo Dunes
0.9953,1277.7,METERS,GHCND_USW00003026,39.24472,-102.28417,10/16/2018,6/1/1997,"BURLINGTON CARSON AIRPORT, CO US",2.567836929,15,-102.1429173,39.36857623,0.187863508,Carousel
0.939,1132.9,METERS,GHCND_USC00050834,39.6567,-102.1193,7/9/2018,6/1/1949,"BONNY DAM 2 NE, CO US",2.567836929,15,-102.1429173,39.36857623,0.289090094,Carousel
0.897,1114.3,METERS,GHCND_USW00023065,39.36722,-101.69333,10/16/2018,1895-06-01,"GOODLAND RENNER FIELD, KS US",2.567836929,15,-102.1429173,39.36857623,0.449589321,Carousel
0.9843,467.9,METERS,GHCND_USW00003957,37.2839,-98.5528,10/16/2018,2/5/1998,"MEDICINE LODGE 1 E, KS US",3.081404315,16,-98.6099786,37.58753767,0.308974475,Ninnescah
0.9704,414.5,METERS,GHCND_USW00013980,37.155,-98.0282,10/17/2018,1896-10-01,"ANTHONY, KS US",3.081404315,16,-98.6099786,37.58753767,0.724951839,Ninnescah
0.4685,470.3,METERS,GHCND_USW00013986,38.06528,-97.86056,10/15/2018,1/1/1948,"HUTCHINSON MUNICIPAL AIRPORT, KS US",3.081404315,16,-98.6099786,37.58753767,0.888744038,Ninnescah
0.988,519.1,METERS,GHCND_USW00094943,43.76667,-99.31833,6/30/2014,2/1/1998,"CHAMBERLAIN MUNICIPAL AIRPORT, SD US",2.567836929,15,-98.76650551,43.89941205,0.56756561,Crow Lake (2010)
0.8893,445.3,METERS,GHCND_USC00394766,44.0644,-99.4602,10/2/2018,2/1/1972,"LAKE SHARPE PROJECT, SD US",2.567836929,15,-98.76650551,43.89941205,0.713044928,Crow Lake (2010)
0.9998,390.1,METERS,GHCND_USW00014936,44.3981,-98.2231,10/16/2018,1881-07-01,"HURON REGIONAL AIRPORT, SD US",2.567836929,15,-98.76650551,43.89941205,0.737549467,Crow Lake (2010)
0.9891,612.6,METERS,GHCND_USC00143527,38.8586,-99.3358,10/17/2018,1892-07-01,"HAYS 1 S, KS US",2.139864108,14,-99.45016818,38.99665911,0.179277431,Buckeye
0.9731,650.7,METERS,GHCND_USC00141383,38.7978,-99.723,10/17/2018,8/1/1949,"CEDAR BLUFF DAM, KS US",2.139864108,14,-99.45016818,38.99665911,0.337612422,Buckeye
0.9412,567.8,METERS,GHCND_USC00148648,39.4031,-99.4192,8/31/2018,9/1/1953,"WEBSTER DAM, KS US",2.139864108,14,-99.45016818,38.99665911,0.407618973,Buckeye
0.9899,387.1,METERS,GHCND_USC00133632,41.6452,-95.3339,2/24/2016,1899-02-01,"HARLAN, IA US",2.567836929,15,-95.14382198,42.13579298,0.526128431,Victory(Carroll)
0.9907,426.7,METERS,GHCND_USC00131277,42.0633,-95.8363,1/16/2018,7/1/1948,"CASTANA EXPERIMENTAL FARM, IA US",2.567836929,15,-95.14382198,42.13579298,0.696262191,Victory(Carroll)
0.9937,368.8,METERS,GHCND_USC00131442,42.7572,-95.5377,10/17/2018,11/13/1921,"CHEROKEE, IA US",2.567836929,15,-95.14382198,42.13579298,0.735721807,Victory(Carroll)
1,180.4,METERS,GHCND_USW00014923,41.46528,-90.52333,10/16/2018,5/24/1943,"MOLINE QUAD CITY INTERNATIONAL AIRPORT, IL US",2.567836929,15,-90.15054192,41.19727798,0.459125297,Bishop Hill I
0.9944,228.6,METERS,GHCND_USW00094982,41.61389,-90.59139,10/16/2018,7/1/1996,"DAVENPORT MUNICIPAL AIRPORT, IA US",2.567836929,15,-90.15054192,41.19727798,0.606558002,Bishop Hill I
0.9999,198.1,METERS,GHCND_USW00014842,40.6675,-89.6839,10/16/2018,5/4/1943,"PEORIA INTERNATIONAL AIRPORT, IL US",2.567836929,15,-90.15054192,41.19727798,0.705988232,Bishop Hill I
0.9989,201.2,METERS,GHCND_USW00014845,43.53306,-84.07972,10/16/2018,1898-01-01,"SAGINAW MBS INTERNATIONAL AIRPORT, MI US",2.139864108,14,-83.48464818,43.60188881,0.599039129,Cross Winds Energy Park
0.9098,178.6,METERS,GHCND_USC00202423,44.2838,-83.5036,10/17/2018,1890-04-01,"EAST TAWAS, MI US",2.139864108,14,-83.48464818,43.60188881,0.682174499,Cross Winds Energy Park
1,234.7,METERS,GHCND_USW00014826,42.9666,-83.7494,10/16/2018,5/2/1948,"FLINT BISHOP INTERNATIONAL AIRPORT, MI US",2.139864108,14,-83.48464818,43.60188881,0.688248062,Cross Winds Energy Park
0.988,519.1,METERS,GHCND_USW00094943,43.76667,-99.31833,6/30/2014,2/1/1998,"CHAMBERLAIN MUNICIPAL AIRPORT, SD US",2.567836929,15,-98.78290542,43.89919323,0.551581263,Crow Lake (2011)
0.8893,445.3,METERS,GHCND_USC00394766,44.0644,-99.4602,10/2/2018,2/1/1972,"LAKE SHARPE PROJECT, SD US",2.567836929,15,-98.78290542,43.89919323,0.697152226,Crow Lake (2011)
0.9998,390.1,METERS,GHCND_USW00014936,44.3981,-98.2231,10/16/2018,1881-07-01,"HURON REGIONAL AIRPORT, SD US",2.567836929,15,-98.78290542,43.89919323,0.749860033,Crow Lake (2011)
0.9788,515.1,METERS,GHCND_USC00256396,42.3691,-97.5983,7/31/2013,9/1/2008,"OSMOND NUMBER 1, NE US",3.081404315,16,-97.98059155,41.99499585,0.534883861,Prairie Breeze III
1,472.7,METERS,GHCND_USW00014941,41.9855,-97.4352,10/16/2018,10/1/1945,"NORFOLK KARL STEFAN MEMORIAL AIRPORT, NE US",3.081404315,16,-97.98059155,41.99499585,0.54547421,Prairie Breeze III
0.9084,502.9,METERS,GHCND_USC00253075,41.3594,-97.9761,11/30/2013,3/1/1901,"FULLERTON, NE US",3.081404315,16,-97.98059155,41.99499585,0.63561172,Prairie Breeze III
0.9492,1098.5,METERS,GHCND_USW00023047,35.2295,-101.7042,10/16/2018,3/1/1943,"AMARILLO AIRPORT, TX US",3.081404315,16,-102.2568892,34.76593296,0.721359677,Hereford 1
0.9862,1351.8,METERS,GHCND_USC00291963,34.5988,-103.2161,10/17/2018,6/21/1949,"CLOVIS 13 N, NM US",3.081404315,16,-102.2568892,34.76593296,0.973662538,Hereford 1
0.5731,989.1,METERS,GHCND_USC00415410,33.6897,-101.8219,10/17/2018,3/1/1911,"LUBBOCK 9 N, TX US",3.081404315,16,-102.2568892,34.76593296,1.160815661,Hereford 1
0.7781,700.1,METERS,GHCND_USC00418566,33.47917,-100.87611,10/16/2018,5/1/1911,"SPUR, TX US",3.081404315,16,-101.1562051,34.02629313,0.614651917,Old Settler Wind
0.5731,989.1,METERS,GHCND_USC00415410,33.6897,-101.8219,10/17/2018,3/1/1911,"LUBBOCK 9 N, TX US",3.081404315,16,-101.1562051,34.02629313,0.74595217,Old Settler Wind
0.981,991.8,METERS,GHCND_USW00023042,33.6656,-101.8231,10/16/2018,8/10/1945,"LUBBOCK INTERNATIONAL AIRPORT, TX US",3.081404315,16,-101.1562051,34.02629313,0.75818754,Old Settler Wind
0.6632,598,METERS,GHCND_USC00327585,47.4914,-101.3775,10/9/2018,9/1/1948,"RIVERDALE, ND US",1.486016741,12,-101.2101989,47.16117025,0.370190956,Oliver II
0.9915,533.4,METERS,GHCND_USC00325479,46.8127,-100.9097,9/4/2018,7/16/1913,"MANDAN EXPERIMENT STATION, ND US",1.486016741,12,-101.2101989,47.16117025,0.460142486,Oliver II
0.9203,577,METERS,GHCND_USC00328840,47.5213,-100.8883,10/7/2018,9/1/1912,"TURTLE LAKE, ND US",1.486016741,12,-101.2101989,47.16117025,0.483024164,Oliver II
0.9098,178.6,METERS,GHCND_USC00202423,44.2838,-83.5036,10/17/2018,1890-04-01,"EAST TAWAS, MI US",2.567836929,15,-83.30756461,43.73144705,0.586108914,Brookfield Wind Park
0.9637,179.8,METERS,GHCND_USW00094898,44.02194,-82.79306,10/15/2018,6/24/1999,"PORT HOPE, MI US",2.567836929,15,-83.30756461,43.73144705,0.590847827,Brookfield Wind Park
0.8035,256.6,METERS,GHCND_USC00203527,44.3127,-83.8272,9/30/2009,2/1/2002,"HALE 5 SSW, MI US",2.567836929,15,-83.30756461,43.73144705,0.779663987,Brookfield Wind Park
0.996,951.9,METERS,GHCND_USW00003030,36.68167,-101.50528,10/16/2018,12/1/1998,"GUYMON MUNICIPAL AIRPORT, OK US",3.697685178,17,-101.0302855,36.4218052,0.541432822,Palo Duro
0.8825,999.1,METERS,GHCND_USC00343628,36.5913,-101.618,10/14/2018,2/15/1910,"GOODWELL RESEARCH STATION, OK US",3.697685178,17,-101.0302855,36.4218052,0.611667257,Palo Duro
0.9936,930.9,METERS,GHCND_USW00003024,35.695,-101.395,10/16/2018,6/1/1997,"BORGER HUTCHINSON CO AIRPORT, TX US",3.697685178,17,-101.0302855,36.4218052,0.813180465,Palo Duro
1,180.4,METERS,GHCND_USW00014923,41.46528,-90.52333,10/16/2018,5/24/1943,"MOLINE QUAD CITY INTERNATIONAL AIRPORT, IL US",2.567836929,15,-90.14768796,41.2341649,0.441045498,Bishop Hill II
0.9944,228.6,METERS,GHCND_USW00094982,41.61389,-90.59139,10/16/2018,7/1/1996,"DAVENPORT MUNICIPAL AIRPORT, IA US",2.567836929,15,-90.14768796,41.2341649,0.584005695,Bishop Hill II
0.9999,198.1,METERS,GHCND_USW00014842,40.6675,-89.6839,10/16/2018,5/4/1943,"PEORIA INTERNATIONAL AIRPORT, IL US",2.567836929,15,-90.14768796,41.2341649,0.732262508,Bishop Hill II
0.9932,497.4,METERS,GHCND_USC00391076,44.3252,-96.7686,10/16/2018,1893-01-01,"BROOKINGS 2 NE, SD US",2.139864108,14,-96.41857517,44.30642764,0.350527864,Minn-Dakota
0.9571,501.1,METERS,GHCND_USC00395090,43.9905,-97.0925,10/17/2018,10/1/1961,"MADISON 2 SE, SD US",2.139864108,14,-96.41857517,44.30642764,0.744301653,Minn-Dakota
0.9561,435.9,METERS,GHCND_USC00397666,43.5877,-96.73,10/17/2018,1/1/2011,"SIOUX FALLS WEATHER FORECAST OFFICE AIRPORT, SD US",2.139864108,14,-96.41857517,44.30642764,0.783297418,Minn-Dakota
0.8412,570,METERS,GHCND_USC00355734,45.4825,-120.7236,10/11/2018,1897-11-01,"MORO, OR US",2.567836929,15,-120.5608108,45.55885365,0.179806046,Klondike IIIA
0.9975,71.6,METERS,GHCND_USW00024219,45.6194,-121.1661,10/15/2018,7/1/1948,"DALLESPORT AIRPORT, WA US",2.567836929,15,-120.5608108,45.55885365,0.608309882,Klondike IIIA
0.9283,253,METERS,GHCND_USC00456768,46.2014,-119.758,10/17/2018,7/1/1925,"PROSSER, WA US",2.567836929,15,-120.5608108,45.55885365,1.028285436,Klondike IIIA
0.9945,1408.8,METERS,GHCND_USC00057866,37.36944,-102.74278,5/31/2002,9/1/1956,"SPRINGFIELD 7 WSW, CO US",1.238347284,11,-102.6366396,37.70066389,0.347814667,Colorado Green Wind Project (Lamar)
0.987,1129,METERS,GHCND_USW00003013,38.07,-102.68806,10/16/2018,7/1/1996,"LAMAR MUNICIPAL AIRPORT, CO US",1.238347284,11,-102.6366396,37.70066389,0.372898401,Colorado Green Wind Project (Lamar)
0.9991,1335.9,METERS,GHCND_USW00003028,37.28333,-102.61389,10/16/2018,7/1/1998,"SPRINGFIELD COMANCHE NATIONAL GRASSLAND, CO US",1.238347284,11,-102.6366396,37.70066389,0.417953491,Colorado Green Wind Project (Lamar)
0.6424,181.1,METERS,GHCND_USW00014834,41.5,-88.16667,10/17/2018,1893-11-01,"JOLIET, IL US",2.567836929,15,-88.05078999,41.00303538,0.510296004,Pilot Hill
0.7581,230.1,METERS,GHCND_USW00014806,40.313,-88.1598,10/15/2018,1893-01-01,"RANTOUL, IL US",2.567836929,15,-88.05078999,41.00303538,0.698592876,Pilot Hill
0.9573,189,METERS,GHCND_USC00111577,41.7372,-87.7775,10/16/2018,2/29/1928,"CHICAGO MIDWAY AIRPORT 3 SW, IL US",2.567836929,15,-88.05078999,41.00303538,0.783380565,Pilot Hill
0.9902,330.7,METERS,GHCND_USC00341750,35.0488,-97.9158,10/15/2018,6/1/1953,"CHICKASHA EXPERIMENT STATION, OK US",2.139864108,14,-97.98370179,35.27995458,0.240921343,Minco Wind
0.9213,391.7,METERS,GHCND_USW00013967,35.3889,-97.6006,10/16/2018,12/14/1941,"OKLAHOMA CITY WILL ROGERS WORLD AIRPORT, OK US",2.139864108,14,-97.98370179,35.27995458,0.398291459,Minco Wind
0.9875,395.3,METERS,GHCND_USW00003954,35.53417,-97.64694,10/16/2018,8/1/1996,"OKLAHOMA CITY WILEY POST AIRPORT, OK US",2.139864108,14,-97.98370179,35.27995458,0.421940734,Minco Wind
0.9285,484.6,METERS,GHCND_USC00341445,36.06167,-98.59,8/31/2002,5/6/1943,"CANTON, OK US",3.081404315,16,-98.69177532,35.97820294,0.13162434,Mammoth Plains
0.5464,585.8,METERS,GHCND_USW00003932,35.3568,-99.2042,10/16/2018,8/17/1958,"CLINTON SHERMAN AIRPORT, OK US",3.081404315,16,-98.69177532,35.97820294,0.805431972,Mammoth Plains
0.9526,365.8,METERS,GHCND_USC00343740,36.7425,-98.133,9/10/2018,3/12/1946,"GREAT SALT PLAINS DAM, OK US",3.081404315,16,-98.69177532,35.97820294,0.946773394,Mammoth Plains
0.9252,765,METERS,GHCND_USW00023041,32.2443,-101.4537,10/17/2018,1/1/1948,"BIG SPRING, TX US",3.081404315,16,-101.4483411,32.48637266,0.242131965,Gunsight
0.9964,694.9,METERS,GHCND_USC00414967,33.06417,-101.04889,10/17/2018,5/1/1994,"LAKE ALAN HENRY, TX US",3.081404315,16,-101.4483411,32.48637266,0.702432196,Gunsight
1,872.3,METERS,GHCND_USW00023023,31.9475,-102.2086,10/16/2018,6/1/1930,"MIDLAND INTERNATIONAL AIRPORT, TX US",3.081404315,16,-101.4483411,32.48637266,0.93186762,Gunsight
0.9973,597.7,METERS,GHCND_USW00094949,40.6005,-98.4258,10/16/2018,7/3/1996,"HASTINGS MUNICIPAL AIRPORT, NE US",2.139864108,14,-98.42182998,40.27864345,0.321881034,Cottonwood Wind
0.9792,590.7,METERS,GHCND_USC00253660,40.6471,-98.3835,10/17/2018,1894-11-01,"HASTINGS 4 N, NE US",2.139864108,14,-98.42182998,40.27864345,0.37044489,Cottonwood Wind
0.9627,545,METERS,GHCND_USC00251684,40.5208,-98.0536,10/17/2018,7/1/1971,"CLAY CENTER, NE US",2.139864108,14,-98.42182998,40.27864345,0.440718855,Cottonwood Wind
0.9285,484.6,METERS,GHCND_USC00341445,36.06167,-98.59,8/31/2002,5/6/1943,"CANTON, OK US",2.567836929,15,-98.97953986,36.14897429,0.399203388,Seiling 2
0.9749,618.7,METERS,GHCND_USC00343304,36.54417,-99.535,3/31/2012,7/1/1940,"FORT SUPPLY, OK US",2.567836929,15,-98.97953986,36.14897429,0.68170053,Seiling 2
0.6758,667.8,METERS,GHCND_USW00013975,36.2967,-99.7689,10/16/2018,5/1/1904,"GAGE AIRPORT, OK US",2.567836929,15,-98.97953986,36.14897429,0.803064325,Seiling 2
0.7781,700.1,METERS,GHCND_USC00418566,33.47917,-100.87611,10/16/2018,5/1/1911,"SPUR, TX US",2.567836929,15,-101.1049227,33.83904825,0.426459407,Wake
0.5731,989.1,METERS,GHCND_USC00415410,33.6897,-101.8219,10/17/2018,3/1/1911,"LUBBOCK 9 N, TX US",2.567836929,15,-101.1049227,33.83904825,0.732366903,Wake
0.981,991.8,METERS,GHCND_USW00023042,33.6656,-101.8231,10/16/2018,8/10/1945,"LUBBOCK INTERNATIONAL AIRPORT, TX US",2.567836929,15,-101.1049227,33.83904825,0.738825325,Wake
0.8059,271.3,METERS,GHCND_USC00128784,40.2233,-86.1086,10/17/2018,8/1/1971,"TIPTON 5 SW, IN US",1.78322009,13,-85.86404207,40.34003668,0.270990835,Wildcat I
0.9646,229.2,METERS,GHCND_USC00121303,39.9617,-86.0585,10/16/2018,12/1/1998,"CARMEL 3 E, IN US",1.78322009,13,-85.86404207,40.34003668,0.425385154,Wildcat I
0.9661,285.6,METERS,GHCND_USW00094895,40.23417,-85.39361,10/16/2018,10/1/1962,"MUNCIE DELAWARE CO AIRPORT, IN US",1.78322009,13,-85.86404207,40.34003668,0.482197147,Wildcat I
0.9936,930.9,METERS,GHCND_USW00003024,35.695,-101.395,10/16/2018,6/1/1997,"BORGER HUTCHINSON CO AIRPORT, TX US",3.697685178,17,-101.1007483,35.33031079,0.468596083,Grandview II (Colbeck's Corner)
0.9952,894.9,METERS,GHCND_USC00418040,35.7048,-101.5492,10/17/2018,10/1/1993,"SANFORD DAM, TX US",3.697685178,17,-101.1007483,35.33031079,0.584252603,Grandview II (Colbeck's Corner)
0.9492,1098.5,METERS,GHCND_USW00023047,35.2295,-101.7042,10/16/2018,3/1/1943,"AMARILLO AIRPORT, TX US",3.697685178,17,-101.1007483,35.33031079,0.611814331,Grandview II (Colbeck's Corner)
0.9856,382.5,METERS,GHCND_USW00003981,34.34444,-98.98306,10/16/2018,2/1/1998,"FREDERICK MUNICIPAL AIRPORT, OK US",2.139864108,14,-99.07437595,34.11221641,0.24953236,Electra Wind
0.619,386.8,METERS,GHCND_USC00348879,34.43972,-99.1375,8/31/2018,7/3/1938,"TIPTON 4 S, OK US",2.139864108,14,-99.07437595,34.11221641,0.333531479,Electra Wind
0.8552,355.7,METERS,GHCND_USC00414982,33.7542,-99.1442,10/17/2018,4/1/1962,"LAKE KEMP, TX US",2.139864108,14,-99.07437595,34.11221641,0.364761769,Electra Wind
0.9386,294.1,METERS,GHCND_USC00122825,40.2538,-85.1484,10/17/2018,1893-01-01,"FARMLAND 5 NNW, IN US",2.139864108,14,-84.94752181,40.32258832,0.212329651,Bluff Point
0.9661,285.6,METERS,GHCND_USW00094895,40.23417,-85.39361,10/16/2018,10/1/1962,"MUNCIE DELAWARE CO AIRPORT, IN US",2.139864108,14,-84.94752181,40.32258832,0.454766396,Bluff Point
0.9979,241.1,METERS,GHCND_USW00014827,40.9705,-85.2063,10/16/2018,8/1/1939,"FORT WAYNE INTERNATIONAL AIRPORT, IN US",2.139864108,14,-84.94752181,40.32258832,0.697678797,Bluff Point
0.9012,492.3,METERS,GHCND_USC00324958,48.7622,-98.3447,10/17/2018,1897-04-01,"LANGDON EXPERIMENTAL FARM, ND US",2.139864108,14,-98.28708083,48.62194192,0.151632115,Langdon (2008)
0.9929,298,METERS,GHCND_CA005021849,49.1833,-98.0833,10/15/2018,12/1/1999,"MORDEN CDA CS, CA",2.139864108,14,-98.28708083,48.62194192,0.597201411,Langdon (2008)
0.9294,446.2,METERS,GHCND_USW00014912,48.1069,-98.868,7/2/2014,1/1/1921,"DEVILS LAKE KDLR, ND US",2.139864108,14,-98.28708083,48.62194192,0.776360261,Langdon (2008)
0.9965,291.1,METERS,GHCND_USW00094989,41.99056,-93.61889,10/16/2018,10/1/1996,"AMES MUNICIPAL AIRPORT, IA US",3.081404315,16,-93.39163803,42.23525025,0.333941277,Story II (aka Garden Wind)
0.9986,335,METERS,GHCND_USC00130200,42.0208,-93.7741,10/10/2018,11/1/1964,"AMES 8 WSW, IA US",3.081404315,16,-93.39163803,42.23525025,0.438481548,Story II (aka Garden Wind)
0.9938,296.9,METERS,GHCND_USW00094988,42.11056,-92.91611,10/16/2018,10/1/1996,"MARSHALLTOWN MUNICIPAL AIRPORT, IA US",3.081404315,16,-93.39163803,42.23525025,0.491604074,Story II (aka Garden Wind)
0.9731,650.7,METERS,GHCND_USC00141383,38.7978,-99.723,10/17/2018,8/1/1949,"CEDAR BLUFF DAM, KS US",2.567836929,15,-99.73485143,38.67129276,0.127061163,Cedar Bluff
0.9891,612.6,METERS,GHCND_USC00143527,38.8586,-99.3358,10/17/2018,1892-07-01,"HAYS 1 S, KS US",2.567836929,15,-99.73485143,38.67129276,0.440824284,Cedar Bluff
0.842,666.9,METERS,GHCND_USW00093990,39.37556,-99.82972,10/16/2018,2/1/1907,"HILL CITY MUNICIPAL AIRPORT, KS US",2.567836929,15,-99.73485143,38.67129276,0.710628169,Cedar Bluff
0.82,1837.9,METERS,GHCND_USW00003068,38.76667,-104.3,10/15/2018,5/1/2006,"BULLSEYE AUXILIARY AIRFIELD USAFA, CO US",1.78322009,13,-104.2294311,38.9975883,0.241460611,Golden West Wind Farm
0.9927,1749.2,METERS,GHCND_USC00052668,38.74028,-104.39944,10/16/2018,7/1/2010,"ELLICOTT 7 S, CO US",1.78322009,13,-104.2294311,38.9975883,0.308400032,Golden West Wind Farm
0.9267,1884,METERS,GHCND_USW00093037,38.81,-104.6884,10/16/2018,9/1/1942,"COLORADO SPRINGS MUNICIPAL AIRPORT, CO US",1.78322009,13,-104.2294311,38.9975883,0.495824368,Golden West Wind Farm
0.9667,1638,METERS,GHCND_USW00093010,39.275,-103.666,10/16/2018,8/1/1948,"LIMON, CO US",2.567836929,15,-103.5647495,39.33490202,0.117643173,Limon II
0.293,1531.6,METERS,GHCND_USC00054172,39.1438,-103.4897,10/17/2018,1893-01-01,"HUGO 1 NW, CO US",2.567836929,15,-103.5647495,39.33490202,0.205310515,Limon II
0.9996,1333.2,METERS,GHCND_USC00059213,40.075,-103.5677,10/17/2018,6/1/1993,"WOODROW 6 NNE, CO US",2.567836929,15,-103.5647495,39.33490202,0.740103865,Limon II
0.4585,291.1,METERS,GHCND_USW00014748,42.15944,-76.89194,10/15/2018,7/1/1938,"ELMIRA CORNING REGIONAL AIRPORT, NY US",2.567836929,15,-76.89046049,41.75550284,0.403939874,Armenia Mountain
0.5986,158.5,METERS,GHCND_USW00014778,41.2433,-76.9217,10/16/2018,1/30/1901,"WILLIAMSPORT REGIONAL AIRPORT, PA US",2.567836929,15,-76.89046049,41.75550284,0.513154608,Armenia Mountain
0.968,292.6,METERS,GHCND_USC00304174,42.4491,-76.4491,10/17/2018,1893-01-01,"ITHACA CORNELL UNIVERSITY, NY US",2.567836929,15,-76.89046049,41.75550284,0.822116847,Armenia Mountain
0.9902,330.7,METERS,GHCND_USC00341750,35.0488,-97.9158,10/15/2018,6/1/1953,"CHICKASHA EXPERIMENT STATION, OK US",2.139864108,14,-98.05861103,35.32923683,0.314705901,Minco II
0.9875,395.3,METERS,GHCND_USW00003954,35.53417,-97.64694,10/16/2018,8/1/1996,"OKLAHOMA CITY WILEY POST AIRPORT, OK US",2.139864108,14,-98.05861103,35.32923683,0.459859375,Minco II
0.9213,391.7,METERS,GHCND_USW00013967,35.3889,-97.6006,10/16/2018,12/14/1941,"OKLAHOMA CITY WILL ROGERS WORLD AIRPORT, OK US",2.139864108,14,-98.05861103,35.32923683,0.46188072,Minco II
0.9283,253,METERS,GHCND_USC00456768,46.2014,-119.758,10/17/2018,7/1/1925,"PROSSER, WA US",2.567836929,15,-120.0486187,45.66467756,0.610352509,South Hurlburt
0.8412,570,METERS,GHCND_USC00355734,45.4825,-120.7236,10/11/2018,1897-11-01,"MORO, OR US",2.567836929,15,-120.0486187,45.66467756,0.699134084,South Hurlburt
0.9957,195.4,METERS,GHCND_USW00004113,45.82583,-119.26111,10/16/2018,3/16/1998,"HERMISTON MUNICIPAL AIRPORT, OR US",2.567836929,15,-120.0486187,45.66467756,0.803828343,South Hurlburt
0.9492,1098.5,METERS,GHCND_USW00023047,35.2295,-101.7042,10/16/2018,3/1/1943,"AMARILLO AIRPORT, TX US",3.081404315,16,-102.2493135,34.71226525,0.751452254,Jumbo Road
0.9862,1351.8,METERS,GHCND_USC00291963,34.5988,-103.2161,10/17/2018,6/21/1949,"CLOVIS 13 N, NM US",3.081404315,16,-102.2493135,34.71226525,0.97342208,Jumbo Road
0.5731,989.1,METERS,GHCND_USC00415410,33.6897,-101.8219,10/17/2018,3/1/1911,"LUBBOCK 9 N, TX US",3.081404315,16,-102.2493135,34.71226525,1.108296875,Jumbo Road
0.9252,765,METERS,GHCND_USW00023041,32.2443,-101.4537,10/17/2018,1/1/1948,"BIG SPRING, TX US",3.081404315,16,-101.4455757,31.72309297,0.521270349,Rattlesnake
1,872.3,METERS,GHCND_USW00023023,31.9475,-102.2086,10/16/2018,6/1/1930,"MIDLAND INTERNATIONAL AIRPORT, TX US",3.081404315,16,-101.4455757,31.72309297,0.795339327,Rattlesnake
0.9977,914.7,METERS,GHCND_USW00003031,31.92056,-102.38667,10/16/2018,12/1/1998,"ODESSA SCHLEMEYER FIELD, TX US",3.081404315,16,-101.4455757,31.72309297,0.961588149,Rattlesnake
0.9098,178.6,METERS,GHCND_USC00202423,44.2838,-83.5036,10/17/2018,1890-04-01,"EAST TAWAS, MI US",2.567836929,15,-83.31563811,43.77030959,0.546810818,Pheasant Run I
0.9637,179.8,METERS,GHCND_USW00094898,44.02194,-82.79306,10/15/2018,6/24/1999,"PORT HOPE, MI US",2.567836929,15,-83.31563811,43.77030959,0.580004955,Pheasant Run I
0.8035,256.6,METERS,GHCND_USC00203527,44.3127,-83.8272,9/30/2009,2/1/2002,"HALE 5 SSW, MI US",2.567836929,15,-83.31563811,43.77030959,0.745575563,Pheasant Run I
0.9974,347.5,METERS,GHCND_USC00214546,44.2395,-95.3152,10/2/2018,1/1/1961,"LAMBERTON SOUTHWEST RESEARCH AND OUTREACH CENTER, MN US",2.567836929,15,-95.95009947,43.8736557,0.732761479,Fenton
0.9561,435.9,METERS,GHCND_USC00397666,43.5877,-96.73,10/17/2018,1/1/2011,"SIOUX FALLS WEATHER FORECAST OFFICE AIRPORT, SD US",2.567836929,15,-95.95009947,43.8736557,0.830671718,Fenton
0.9989,435.3,METERS,GHCND_USW00014944,43.5778,-96.7539,10/16/2018,1/1/1932,"SIOUX FALLS FOSS FIELD, SD US",2.567836929,15,-95.95009947,43.8736557,0.856519639,Fenton
0.2393,150.6,METERS,GHCND_USW00012907,27.53333,-99.46667,10/16/2018,3/15/1965,"LAREDO INTERNATIONAL AIRPORT, TX US",3.081404315,16,-98.98859916,27.3347443,0.517675583,Javelina
0.7522,131.1,METERS,GHCND_USC00415060,27.5684,-99.4982,10/16/2018,9/1/1946,"LAREDO 2, TX US",3.081404315,16,-98.98859916,27.3347443,0.560613952,Javelina
0.9837,97.5,METERS,GHCND_USC00413060,26.558,-99.1372,10/17/2018,7/1/1962,"FALCON DAM, TX US",3.081404315,16,-98.98859916,27.3347443,0.790831158,Javelina
0.9863,215.8,METERS,GHCND_USC00129430,40.475,-86.9919,10/17/2018,1/1/1901,"WEST LAFAYETTE 6 NW, IN US",2.567836929,15,-87.01801395,40.60030843,0.12800055,Meadow Lake III
0.926,182.6,METERS,GHCND_USW00014835,40.41222,-86.93694,10/16/2018,1/1/1944,"LAFAYETTE PURDUE UNIVERSITY AIRPORT, IN US",2.567836929,15,-87.01801395,40.60030843,0.204817584,Meadow Lake III
0.8807,210.3,METERS,GHCND_USC00129670,41.0267,-86.5866,5/31/2018,1897-04-28,"WINAMAC 2 SSE, IN US",2.567836929,15,-87.01801395,40.60030843,0.606570499,Meadow Lake III
0.9964,694.9,METERS,GHCND_USC00414967,33.06417,-101.04889,10/17/2018,5/1/1994,"LAKE ALAN HENRY, TX US",3.697685178,17,-100.6741214,32.59145904,0.60324715,Pyron (Roscoe III)
0.9252,765,METERS,GHCND_USW00023041,32.2443,-101.4537,10/17/2018,1/1/1948,"BIG SPRING, TX US",3.697685178,17,-100.6741214,32.59145904,0.85338275,Pyron (Roscoe III)
0.7781,700.1,METERS,GHCND_USC00418566,33.47917,-100.87611,10/16/2018,5/1/1911,"SPUR, TX US",3.697685178,17,-100.6741214,32.59145904,0.910401083,Pyron (Roscoe III)
0.9653,584,METERS,GHCND_USW00023034,31.35167,-100.495,10/16/2018,8/1/1907,"SAN ANGELO MATHIS FIELD, TX US",3.697685178,17,-100.6635945,31.12417291,0.283159021,Langford
0.2272,576.1,METERS,GHCND_USC00417944,31.37083,-100.49432,10/17/2018,11/1/1947,"SAN ANGELO WEATHER FORECAST OFFICE, TX US",3.697685178,17,-100.6635945,31.12417291,0.29915477,Langford
0.8222,598.6,METERS,GHCND_USC00416499,31.45389,-100.49333,1/31/2008,12/1/1975,"O C FISHER DAM, TX US",3.697685178,17,-100.6635945,31.12417291,0.371084033,Langford
0.9974,347.5,METERS,GHCND_USC00214546,44.2395,-95.3152,10/2/2018,1/1/1961,"LAMBERTON SOUTHWEST RESEARCH AND OUTREACH CENTER, MN US",3.081404315,16,-95.78957449,43.6838723,0.73058422,Nobles
0.9943,407.8,METERS,GHCND_USW00014972,43.16444,-95.20167,10/15/2018,10/1/1996,"SPENCER MUNICIPAL AIRPORT, IA US",3.081404315,16,-95.78957449,43.6838723,0.784500864,Nobles
0.9561,435.9,METERS,GHCND_USC00397666,43.5877,-96.73,10/17/2018,1/1/2011,"SIOUX FALLS WEATHER FORECAST OFFICE AIRPORT, SD US",3.081404315,16,-95.78957449,43.6838723,0.945330231,Nobles
0.9977,771.1,METERS,GHCND_USW00094946,41.43333,-99.63333,10/16/2018,7/31/1999,"BROKEN BOW MUNICIPAL AIRPORT, NE US",3.697685178,17,-99.55834302,41.45824886,0.079018965,Broken Bow I
0.9985,629.1,METERS,GHCND_USW00094958,41.62333,-98.94833,10/16/2018,8/1/2000,"ORD EVELYN SHARP FIELD, NE US",3.697685178,17,-99.55834302,41.45824886,0.631955431,Broken Bow I
1,846.7,METERS,GHCND_USW00024023,41.1213,-100.6694,10/16/2018,1/1/1948,"NORTH PLATTE REGIONAL AIRPORT, NE US",3.697685178,17,-99.55834302,41.45824886,1.161026333,Broken Bow I
0.9561,435.9,METERS,GHCND_USC00397666,43.5877,-96.73,10/17/2018,1/1/2011,"SIOUX FALLS WEATHER FORECAST OFFICE AIRPORT, SD US",2.567836929,15,-96.28542053,43.79704255,0.491401269,Prairie Rose
0.9989,435.3,METERS,GHCND_USW00014944,43.5778,-96.7539,10/16/2018,1/1/1932,"SIOUX FALLS FOSS FIELD, SD US",2.567836929,15,-96.28542053,43.79704255,0.517242988,Prairie Rose
0.9932,497.4,METERS,GHCND_USC00391076,44.3252,-96.7686,10/16/2018,1893-01-01,"BROOKINGS 2 NE, SD US",2.567836929,15,-96.28542053,43.79704255,0.715830075,Prairie Rose
0.9915,533.4,METERS,GHCND_USC00325479,46.8127,-100.9097,9/4/2018,7/16/1913,"MANDAN EXPERIMENT STATION, ND US",1.78322009,13,-101.1653848,46.95033367,0.290375133,Oliver III
0.8602,503.2,METERS,GHCND_USW00024011,46.7825,-100.7572,10/16/2018,7/1/1936,"BISMARCK MUNICIPAL AIRPORT, ND US",1.78322009,13,-101.1653848,46.95033367,0.441342191,Oliver III
0.6632,598,METERS,GHCND_USC00327585,47.4914,-101.3775,10/9/2018,9/1/1948,"RIVERDALE, ND US",1.78322009,13,-101.1653848,46.95033367,0.581158891,Oliver III
0.9989,201.2,METERS,GHCND_USW00014845,43.53306,-84.07972,10/16/2018,1898-01-01,"SAGINAW MBS INTERNATIONAL AIRPORT, MI US",2.567836929,15,-83.65310457,43.52597372,0.426674276,Tuscola Bay Wind
1,234.7,METERS,GHCND_USW00014826,42.9666,-83.7494,10/16/2018,5/2/1948,"FLINT BISHOP INTERNATIONAL AIRPORT, MI US",2.567836929,15,-83.65310457,43.52597372,0.567601769,Tuscola Bay Wind
0.9098,178.6,METERS,GHCND_USC00202423,44.2838,-83.5036,10/17/2018,1890-04-01,"EAST TAWAS, MI US",2.567836929,15,-83.65310457,43.52597372,0.772432708,Tuscola Bay Wind
0.9401,310,METERS,GHCND_USW00013966,33.9786,-98.4928,10/16/2018,1897-01-01,"WICHITA FALLS MUNICIPAL AIRPORT, TX US",3.081404315,16,-98.57871448,33.50355068,0.482755792,Bobcat Bluff
0.8552,355.7,METERS,GHCND_USC00414982,33.7542,-99.1442,10/17/2018,4/1/1962,"LAKE KEMP, TX US",3.081404315,16,-98.57871448,33.50355068,0.618545839,Bobcat Bluff
0.9027,283.5,METERS,GHCND_USW00093985,32.7816,-98.0602,10/16/2018,3/10/1948,"MINERAL WELLS AIRPORT, TX US",3.081404315,16,-98.57871448,33.50355068,0.888858847,Bobcat Bluff
0.8412,570,METERS,GHCND_USC00355734,45.4825,-120.7236,10/11/2018,1897-11-01,"MORO, OR US",3.081404315,16,-120.5918449,45.57371263,0.160247141,Klondike III (Wasco)
0.9975,71.6,METERS,GHCND_USW00024219,45.6194,-121.1661,10/15/2018,7/1/1948,"DALLESPORT AIRPORT, WA US",3.081404315,16,-120.5918449,45.57371263,0.57606965,Klondike III (Wasco)
0.9752,152.4,METERS,GHCND_USC00354003,45.6847,-121.5175,10/9/2018,1893-01-01,"HOOD RIVER EXPERIMENT STATION, OR US",3.081404315,16,-120.5918449,45.57371263,0.932285116,Klondike III (Wasco)
0.9252,765,METERS,GHCND_USW00023041,32.2443,-101.4537,10/17/2018,1/1/1948,"BIG SPRING, TX US",2.567836929,15,-101.7478275,32.71594848,0.555844653,Mesquite Creek
0.9964,694.9,METERS,GHCND_USC00414967,33.06417,-101.04889,10/17/2018,5/1/1994,"LAKE ALAN HENRY, TX US",2.567836929,15,-101.7478275,32.71594848,0.780878898,Mesquite Creek
1,872.3,METERS,GHCND_USW00023023,31.9475,-102.2086,10/16/2018,6/1/1930,"MIDLAND INTERNATIONAL AIRPORT, TX US",2.567836929,15,-101.7478275,32.71594848,0.89600467,Mesquite Creek
1,472.7,METERS,GHCND_USW00014941,41.9855,-97.4352,10/16/2018,10/1/1945,"NORFOLK KARL STEFAN MEMORIAL AIRPORT, NE US",3.081404315,16,-97.92293827,41.93980215,0.489874384,Prairie Breeze II
0.9788,515.1,METERS,GHCND_USC00256396,42.3691,-97.5983,7/31/2013,9/1/2008,"OSMOND NUMBER 1, NE US",3.081404315,16,-97.92293827,41.93980215,0.538225466,Prairie Breeze II
0.9084,502.9,METERS,GHCND_USC00253075,41.3594,-97.9761,11/30/2013,3/1/1901,"FULLERTON, NE US",3.081404315,16,-97.92293827,41.93980215,0.582831726,Prairie Breeze II
0.9964,694.9,METERS,GHCND_USC00414967,33.06417,-101.04889,10/17/2018,5/1/1994,"LAKE ALAN HENRY, TX US",3.081404315,16,-100.8871279,32.78401979,0.323498226,Camp Springs II (4Q07)
0.7781,700.1,METERS,GHCND_USC00418566,33.47917,-100.87611,10/16/2018,5/1/1911,"SPUR, TX US",3.081404315,16,-100.8871279,32.78401979,0.695237521,Camp Springs II (4Q07)
0.9252,765,METERS,GHCND_USW00023041,32.2443,-101.4537,10/17/2018,1/1/1948,"BIG SPRING, TX US",3.081404315,16,-100.8871279,32.78401979,0.782496864,Camp Springs II (4Q07)
0.9526,365.8,METERS,GHCND_USC00343740,36.7425,-98.133,9/10/2018,3/12/1946,"GREAT SALT PLAINS DAM, OK US",1.78322009,13,-97.67607912,36.44769702,0.5437697,Breckinridge
0.9995,304.8,METERS,GHCND_USW00013969,36.73667,-97.10194,10/16/2018,1/1/1948,"PONCA CITY MUNICIPAL AIRPORT, OK US",1.78322009,13,-97.67607912,36.44769702,0.642760544,Breckinridge
0.9892,325.5,METERS,GHCND_USW00053913,35.8517,-97.4142,10/16/2018,4/9/1998,"GUTHRIE MUNICIPAL AIRPORT, OK US",1.78322009,13,-97.67607912,36.44769702,0.650993948,Breckinridge
0.619,386.8,METERS,GHCND_USC00348879,34.43972,-99.1375,8/31/2018,7/3/1938,"TIPTON 4 S, OK US",2.139864108,14,-99.37687119,34.30483719,0.274757964,Blue Summit
0.9856,382.5,METERS,GHCND_USW00003981,34.34444,-98.98306,10/16/2018,2/1/1998,"FREDERICK MUNICIPAL AIRPORT, OK US",2.139864108,14,-99.37687119,34.30483719,0.395797467,Blue Summit
0.9498,464.8,METERS,GHCND_USC00340184,34.8847,-99.2964,10/17/2018,8/1/1945,"ALTUS DAM, OK US",2.139864108,14,-99.37687119,34.30483719,0.585419928,Blue Summit
0.7581,230.1,METERS,GHCND_USW00014806,40.313,-88.1598,10/15/2018,1893-01-01,"RANTOUL, IL US",2.567836929,15,-88.01471818,40.46793756,0.212260177,Pioneer Trail
0.995,205.7,METERS,GHCND_USC00116344,40.1101,-87.9567,10/17/2018,11/1/2001,"OGDEN, IL US",2.567836929,15,-88.01471818,40.46793756,0.362510457,Pioneer Trail
0.9988,219.8,METERS,GHCND_USC00118740,40.084,-88.2404,10/17/2018,8/1/1902,"CHAMPAIGN 3 S, IL US",2.567836929,15,-88.01471818,40.46793756,0.44535417,Pioneer Trail
0.8552,355.7,METERS,GHCND_USC00414982,33.7542,-99.1442,10/17/2018,4/1/1962,"LAKE KEMP, TX US",3.081404315,16,-99.5414586,33.35810393,0.560987069,Horse Creek Wind
0.9804,545.6,METERS,GHCND_USW00013962,32.4105,-99.6822,10/16/2018,8/1/1946,"ABILENE REGIONAL AIRPORT, TX US",3.081404315,16,-99.5414586,33.35810393,0.957998617,Horse Creek Wind
0.9856,382.5,METERS,GHCND_USW00003981,34.34444,-98.98306,10/16/2018,2/1/1998,"FREDERICK MUNICIPAL AIRPORT, OK US",3.081404315,16,-99.5414586,33.35810393,1.133431886,Horse Creek Wind
0.9283,253,METERS,GHCND_USC00456768,46.2014,-119.758,10/17/2018,7/1/1925,"PROSSER, WA US",2.567836929,15,-120.006485,45.58109325,0.668225468,Horseshoe Bend
0.8412,570,METERS,GHCND_USC00355734,45.4825,-120.7236,10/11/2018,1897-11-01,"MORO, OR US",2.567836929,15,-120.006485,45.58109325,0.723860831,Horseshoe Bend
0.9957,195.4,METERS,GHCND_USW00004113,45.82583,-119.26111,10/16/2018,3/16/1998,"HERMISTON MUNICIPAL AIRPORT, OR US",2.567836929,15,-120.006485,45.58109325,0.784525346,Horseshoe Bend
0.9863,215.8,METERS,GHCND_USC00129430,40.475,-86.9919,10/17/2018,1/1/1901,"WEST LAFAYETTE 6 NW, IN US",2.567836929,15,-87.44825459,40.56063995,0.464320705,Fowler Ridge II
0.926,182.6,METERS,GHCND_USW00014835,40.41222,-86.93694,10/16/2018,1/1/1944,"LAFAYETTE PURDUE UNIVERSITY AIRPORT, IN US",2.567836929,15,-87.44825459,40.56063995,0.532420038,Fowler Ridge II
0.995,205.7,METERS,GHCND_USC00116344,40.1101,-87.9567,10/17/2018,11/1/2001,"OGDEN, IL US",2.567836929,15,-87.44825459,40.56063995,0.679340108,Fowler Ridge II
0.9979,1216.2,METERS,GHCND_USW00093042,36.0167,-102.55,10/16/2018,12/10/1948,"DALHART FAA AIRPORT, TX US",3.081404315,16,-102.5949644,35.30766631,0.710458003,Spinning Spur 2
0.473,1165.9,METERS,GHCND_USC00299284,35.36,-103.4433,9/30/2015,2/1/1965,"UTE DAM, NM US",3.081404315,16,-102.5949644,35.30766631,0.849948247,Spinning Spur 2
0.9492,1098.5,METERS,GHCND_USW00023047,35.2295,-101.7042,10/16/2018,3/1/1943,"AMARILLO AIRPORT, TX US",3.081404315,16,-102.5949644,35.30766631,0.894187494,Spinning Spur 2
0.9902,330.7,METERS,GHCND_USC00341750,35.0488,-97.9158,10/15/2018,6/1/1953,"CHICKASHA EXPERIMENT STATION, OK US",2.139864108,14,-98.15396824,35.37613187,0.404808924,Minco III
0.9875,395.3,METERS,GHCND_USW00003954,35.53417,-97.64694,10/16/2018,8/1/1996,"OKLAHOMA CITY WILEY POST AIRPORT, OK US",2.139864108,14,-98.15396824,35.37613187,0.531087266,Minco III
0.9213,391.7,METERS,GHCND_USW00013967,35.3889,-97.6006,10/16/2018,12/14/1941,"OKLAHOMA CITY WILL ROGERS WORLD AIRPORT, OK US",2.139864108,14,-98.15396824,35.37613187,0.553515521,Minco III
0.8607,1309.4,METERS,GHCND_USW00024030,41.0993,-102.9863,10/16/2018,1/1/1948,"SIDNEY MUNICIPAL AIRPORT, NE US",2.139864108,14,-103.0146399,40.98860697,0.114263288,Spring Canyon Expansion
0.9565,1316.7,METERS,GHCND_USC00257830,41.2294,-103.0214,9/30/2018,12/1/1908,"SIDNEY 6 NNW, NE US",2.139864108,14,-103.0146399,40.98860697,0.240887901,Spring Canyon Expansion
0.9988,1130.5,METERS,GHCND_USC00051996,40.86,-102.803,10/17/2018,3/1/1996,"CROOK, CO US",2.139864108,14,-103.0146399,40.98860697,0.247651405,Spring Canyon Expansion
0.9899,387.1,METERS,GHCND_USC00133632,41.6452,-95.3339,2/24/2016,1899-02-01,"HARLAN, IA US",2.139864108,14,-95.22941535,41.45945645,0.213114306,Walnut Wind Project
0.9979,299.3,METERS,GHCND_USW00014942,41.3102,-95.8991,10/16/2018,1/1/1948,"OMAHA EPPLEY AIRFIELD, NE US",2.139864108,14,-95.22941535,41.45945645,0.68611589,Walnut Wind Project
0.8289,297.2,METERS,GHCND_USC00137613,40.7672,-95.38,10/17/2018,6/1/1918,"SHENANDOAH, IA US",2.139864108,14,-95.22941535,41.45945645,0.708445291,Walnut Wind Project
0.9691,140.2,METERS,GHCND_USC00114013,41.26472,-89.33806,6/30/2009,8/1/1962,"HENNEPIN POWER PLANT, IL US",3.081404315,16,-89.62315917,41.07716967,0.341257473,Camp Grove
0.9999,198.1,METERS,GHCND_USW00014842,40.6675,-89.6839,10/16/2018,5/4/1943,"PEORIA INTERNATIONAL AIRPORT, IL US",3.081404315,16,-89.62315917,41.07716967,0.414148146,Camp Grove
1,180.4,METERS,GHCND_USW00014923,41.46528,-90.52333,10/16/2018,5/24/1943,"MOLINE QUAD CITY INTERNATIONAL AIRPORT, IL US",3.081404315,16,-89.62315917,41.07716967,0.980274019,Camp Grove
0.9914,539.2,METERS,GHCND_USC00325993,48.1802,-101.2963,10/17/2018,6/10/1905,"MINOT EXPERIMENT STATION, ND US",1.486016741,12,-101.2703701,47.93890582,0.242683416,Prairie Winds ND 1
0.9808,507.5,METERS,GHCND_USW00024013,48.2552,-101.2733,10/16/2018,7/2/1948,"MINOT INTERNATIONAL AIRPORT, ND US",1.486016741,12,-101.2703701,47.93890582,0.316307751,Prairie Winds ND 1
0.9992,582.2,METERS,GHCND_USW00094041,47.64583,-101.43944,10/15/2018,5/21/1998,"GARRISON, ND US",1.486016741,12,-101.2703701,47.93890582,0.33834606,Prairie Winds ND 1
0.8174,368.8,METERS,GHCND_USC00328937,46.9558,-98.0203,11/23/2011,1893-04-01,"VALLEY CITY 3 NNW, ND US",3.081404315,16,-97.93457171,47.16537471,0.226430784,Ashtabula III
0.9998,455.4,METERS,GHCND_USW00014919,46.9258,-98.6691,10/16/2018,7/1/1948,"JAMESTOWN MUNICIPAL AIRPORT, ND US",3.081404315,16,-97.93457171,47.16537471,0.772611058,Ashtabula III
0.9951,256.6,METERS,GHCND_USW00014916,47.9428,-97.1839,10/16/2018,8/7/1948,"GRAND FORKS INTERNATIONAL AIRPORT, ND US",3.081404315,16,-97.93457171,47.16537471,1.080693341,Ashtabula III
0.9804,545.6,METERS,GHCND_USW00013962,32.4105,-99.6822,10/16/2018,8/1/1946,"ABILENE REGIONAL AIRPORT, TX US",3.081404315,16,-100.2191674,32.43437008,0.537497682,Trent Mesa
0.9411,594.1,METERS,GHCND_USC00414278,31.84555,-99.56068,10/17/2018,7/1/1953,"HORDS CREEK DAM, TX US",3.081404315,16,-100.2191674,32.43437008,0.883354249,Trent Mesa
0.8222,598.6,METERS,GHCND_USC00416499,31.45389,-100.49333,1/31/2008,12/1/1975,"O C FISHER DAM, TX US",3.081404315,16,-100.2191674,32.43437008,1.018089546,Trent Mesa
0.9977,771.1,METERS,GHCND_USW00094946,41.43333,-99.63333,10/16/2018,7/31/1999,"BROKEN BOW MUNICIPAL AIRPORT, NE US",3.697685178,17,-99.56019326,41.52936556,0.12071376,Broken Bow II
0.9985,629.1,METERS,GHCND_USW00094958,41.62333,-98.94833,10/16/2018,8/1/2000,"ORD EVELYN SHARP FIELD, NE US",3.697685178,17,-99.56019326,41.52936556,0.619036316,Broken Bow II
1,846.7,METERS,GHCND_USW00024023,41.1213,-100.6694,10/16/2018,1/1/1948,"NORTH PLATTE REGIONAL AIRPORT, NE US",3.697685178,17,-99.56019326,41.52936556,1.181887093,Broken Bow II
0.9999,373.4,METERS,GHCND_USW00014940,43.1544,-93.3269,10/16/2018,1/1/1948,"MASON CITY MUNICIPAL AIRPORT, IA US",3.697685178,17,-93.85358631,43.19518786,0.528263304,Crystal Lake I - GE Energy
0.9939,401.4,METERS,GHCND_USW00094971,43.40111,-94.74722,10/16/2018,7/1/1996,"ESTHERVILLE MUNICIPAL AIRPORT, IA US",3.697685178,17,-93.85358631,43.19518786,0.917052397,Crystal Lake I - GE Energy
0.9941,351.4,METERS,GHCND_USC00218692,44.0707,-93.5264,10/4/2018,1/2/1915,"WASECA SOUTHERN RESEARCH AND OUTREACH CENTER, MN US",3.697685178,17,-93.85358631,43.19518786,0.934650945,Crystal Lake I - GE Energy
0.9804,545.6,METERS,GHCND_USW00013962,32.4105,-99.6822,10/16/2018,8/1/1946,"ABILENE REGIONAL AIRPORT, TX US",3.081404315,16,-100.4378604,32.30591822,0.762862974,Sweetwater Phase III
0.8222,598.6,METERS,GHCND_USC00416499,31.45389,-100.49333,1/31/2008,12/1/1975,"O C FISHER DAM, TX US",3.081404315,16,-100.4378604,32.30591822,0.853831936,Sweetwater Phase III
0.2272,576.1,METERS,GHCND_USC00417944,31.37083,-100.49432,10/17/2018,11/1/1947,"SAN ANGELO WEATHER FORECAST OFFICE, TX US",3.081404315,16,-100.4378604,32.30591822,0.93679116,Sweetwater Phase III
0.9989,201.2,METERS,GHCND_USW00014845,43.53306,-84.07972,10/16/2018,1898-01-01,"SAGINAW MBS INTERNATIONAL AIRPORT, MI US",2.139864108,14,-84.4474311,43.42594451,0.382995014,Gratiot
0.8192,236.2,METERS,GHCND_USW00014828,43.9758,-84.4908,10/17/2018,1892-12-01,"GLADWIN, MI US",2.139864108,14,-84.4474311,43.42594451,0.551563164,Gratiot
0.9327,261.8,METERS,GHCND_USW00014836,42.7761,-84.5997,10/16/2018,1/1/1948,"LANSING CAPITAL CITY AIRPORT, MI US",2.139864108,14,-84.4474311,43.42594451,0.667445656,Gratiot
0.9901,246,METERS,GHCND_USW00004840,43.76944,-88.49083,10/15/2018,8/2/1996,"FOND DU LAC CO AIRPORT, WI US",2.567836929,15,-88.52509579,43.62112043,0.152226282,Forward Wind Project
0.9978,238.4,METERS,GHCND_USW00094855,43.98444,-88.55694,10/16/2018,7/1/1996,"OSHKOSH WITTMAN REGIONAL AIRPORT, WI US",2.567836929,15,-88.52509579,43.62112043,0.364712444,Forward Wind Project
0.9938,227.4,METERS,GHCND_USW00004841,43.76944,-87.85056,10/15/2018,9/1/1996,"SHEBOYGAN CO MEMORIAL AIRPORT, WI US",2.567836929,15,-88.52509579,43.62112043,0.690649862,Forward Wind Project
0.6134,274.3,METERS,GHCND_USW00014914,46.9253,-96.8111,10/16/2018,1891-05-01,"FARGO HECTOR INTERNATIONAL AIRPORT, ND US",3.081404315,16,-96.23815297,46.71360919,0.610803815,Lakeswind
0.2731,312.1,METERS,GHCND_USC00218947,45.8619,-96.565,2/28/2018,9/1/1939,"WHITE ROCK DAM, MN US",3.081404315,16,-96.23815297,46.71360919,0.912270531,Lakeswind
0.9874,431.6,METERS,GHCND_USW00014910,45.8679,-95.3941,10/15/2018,5/1/1940,"ALEXANDRIA MUNICIPAL AIRPORT, MN US",3.081404315,16,-96.23815297,46.71360919,1.194842853,Lakeswind
0.9637,179.8,METERS,GHCND_USW00094898,44.02194,-82.79306,10/15/2018,6/24/1999,"PORT HOPE, MI US",2.567836929,15,-82.94615454,43.71643972,0.34171386,Michigan Wind I
0.9098,178.6,METERS,GHCND_USC00202423,44.2838,-83.5036,10/17/2018,1890-04-01,"EAST TAWAS, MI US",2.567836929,15,-82.94615454,43.71643972,0.795388664,Michigan Wind I
0.9631,181,METERS,GHCND_CA006127510,43,-82.3167,10/16/2018,12/17/2009,"SARNIA, CA",2.567836929,15,-82.94615454,43.71643972,0.953676513,Michigan Wind I
0.8174,368.8,METERS,GHCND_USC00328937,46.9558,-98.0203,11/23/2011,1893-04-01,"VALLEY CITY 3 NNW, ND US",3.081404315,16,-97.91947899,47.12100288,0.193537768,Ashtabula Wind Center
0.9998,455.4,METERS,GHCND_USW00014919,46.9258,-98.6691,10/16/2018,7/1/1948,"JAMESTOWN MUNICIPAL AIRPORT, ND US",3.081404315,16,-97.91947899,47.12100288,0.77461979,Ashtabula Wind Center
0.9951,256.6,METERS,GHCND_USW00014916,47.9428,-97.1839,10/16/2018,8/7/1948,"GRAND FORKS INTERNATIONAL AIRPORT, ND US",3.081404315,16,-97.91947899,47.12100288,1.102917476,Ashtabula Wind Center
0.9964,694.9,METERS,GHCND_USC00414967,33.06417,-101.04889,10/17/2018,5/1/1994,"LAKE ALAN HENRY, TX US",2.567836929,15,-101.6624234,32.99301741,0.617645513,Stephens Ranch II
0.981,991.8,METERS,GHCND_USW00023042,33.6656,-101.8231,10/16/2018,8/10/1945,"LUBBOCK INTERNATIONAL AIRPORT, TX US",2.567836929,15,-101.6624234,32.99301741,0.691508707,Stephens Ranch II
0.5731,989.1,METERS,GHCND_USC00415410,33.6897,-101.8219,10/17/2018,3/1/1911,"LUBBOCK 9 N, TX US",2.567836929,15,-101.6624234,32.99301741,0.714702315,Stephens Ranch II
0.9792,1575.8,METERS,GHCND_USC00251361,41.0102,-103.8769,10/17/2018,5/1/2002,"BUSHNELL 15 S, NE US",2.567836929,15,-103.7971871,40.9400077,0.106212577,Cedar Creek II
0.8607,1309.4,METERS,GHCND_USW00024030,41.0993,-102.9863,10/16/2018,1/1/1948,"SIDNEY MUNICIPAL AIRPORT, NE US",2.567836929,15,-103.7971871,40.9400077,0.826384818,Cedar Creek II
0.9565,1316.7,METERS,GHCND_USC00257830,41.2294,-103.0214,9/30/2018,12/1/1908,"SIDNEY 6 NNW, NE US",2.567836929,15,-103.7971871,40.9400077,0.82800572,Cedar Creek II
0.9965,291.1,METERS,GHCND_USW00094989,41.99056,-93.61889,10/16/2018,10/1/1996,"AMES MUNICIPAL AIRPORT, IA US",2.567836929,15,-93.28658131,42.10519407,0.351525298,Story County
0.9938,296.9,METERS,GHCND_USW00094988,42.11056,-92.91611,10/16/2018,10/1/1996,"MARSHALLTOWN MUNICIPAL AIRPORT, IA US",2.567836929,15,-93.28658131,42.10519407,0.370510168,Story County
0.9986,335,METERS,GHCND_USC00130200,42.0208,-93.7741,10/10/2018,11/1/1964,"AMES 8 WSW, IA US",2.567836929,15,-93.28658131,42.10519407,0.494769474,Story County
0.9012,492.3,METERS,GHCND_USC00324958,48.7622,-98.3447,10/17/2018,1897-04-01,"LANGDON EXPERIMENTAL FARM, ND US",2.139864108,14,-98.30500827,48.62139967,0.146287957,Langdon (4Q07)
0.9929,298,METERS,GHCND_CA005021849,49.1833,-98.0833,10/15/2018,12/1/1999,"MORDEN CDA CS, CA",2.139864108,14,-98.30500827,48.62139967,0.604058388,Langdon (4Q07)
0.9294,446.2,METERS,GHCND_USW00014912,48.1069,-98.868,7/2/2014,1/1/1921,"DEVILS LAKE KDLR, ND US",2.139864108,14,-98.30500827,48.62139967,0.76267267,Langdon (4Q07)
0.8179,397.5,METERS,GHCND_USW00014925,43.9041,-92.4916,10/16/2018,1893-01-01,"ROCHESTER INTERNATIONAL AIRPORT, MN US",3.081404315,16,-92.48494877,43.40534342,0.498800923,Crane Creek
0.9983,264.6,METERS,GHCND_USW00094910,42.5544,-92.4011,10/16/2018,3/1/1950,"WATERLOO MUNICIPAL AIRPORT, IA US",3.081404315,16,-92.48494877,43.40534342,0.855064517,Crane Creek
0.9999,373.4,METERS,GHCND_USW00014940,43.1544,-93.3269,10/16/2018,1/1/1948,"MASON CITY MUNICIPAL AIRPORT, IA US",3.081404315,16,-92.48494877,43.40534342,0.878552486,Crane Creek
0.2393,150.6,METERS,GHCND_USW00012907,27.53333,-99.46667,10/16/2018,3/15/1965,"LAREDO INTERNATIONAL AIRPORT, TX US",2.567836929,15,-98.9088124,27.57627508,0.559508161,Cedro Hill
0.7522,131.1,METERS,GHCND_USC00415060,27.5684,-99.4982,10/16/2018,9/1/1946,"LAREDO 2, TX US",2.567836929,15,-98.9088124,27.57627508,0.589440209,Cedro Hill
0.3484,52.7,METERS,GHCND_USW00012932,27.74111,-98.02472,10/16/2018,1/1/1948,"ALICE INTERNATIONAL AIRPORT, TX US",2.567836929,15,-98.9088124,27.57627508,0.899327484,Cedro Hill
0.9833,372.2,METERS,GHCND_USC00417300,31.9633,-98.4941,10/17/2018,6/1/1963,"PROCTOR RESERVOIR, TX US",2.567836929,15,-98.48703595,31.38867063,0.57467279,Goldthwaite
0.9838,392.6,METERS,GHCND_USW00003999,30.7406,-98.2354,10/16/2018,9/15/1996,"BURNET MUNICIPAL AIRPORT, TX US",2.567836929,15,-98.48703595,31.38867063,0.695209459,Goldthwaite
0.3054,309.4,METERS,GHCND_USW00003902,31.06667,-97.83333,10/23/2014,9/26/1950,"ROBERT GRAY ARMY AIR FIELD, TX US",2.567836929,15,-98.48703595,31.38867063,0.728708363,Goldthwaite
0.8552,355.7,METERS,GHCND_USC00414982,33.7542,-99.1442,10/17/2018,4/1/1962,"LAKE KEMP, TX US",3.697685178,17,-99.64714823,33.34140889,0.650656148,Willow Springs Wind Farm
0.9804,545.6,METERS,GHCND_USW00013962,32.4105,-99.6822,10/16/2018,8/1/1946,"ABILENE REGIONAL AIRPORT, TX US",3.697685178,17,-99.64714823,33.34140889,0.931568563,Willow Springs Wind Farm
0.9856,382.5,METERS,GHCND_USW00003981,34.34444,-98.98306,10/16/2018,2/1/1998,"FREDERICK MUNICIPAL AIRPORT, OK US",3.697685178,17,-99.64714823,33.34140889,1.202948289,Willow Springs Wind Farm
0.9943,407.8,METERS,GHCND_USW00014972,43.16444,-95.20167,10/15/2018,10/1/1996,"SPENCER MUNICIPAL AIRPORT, IA US",3.081404315,16,-94.73740722,42.59949715,0.731232082,Pomeroy I
0.9939,401.4,METERS,GHCND_USW00094971,43.40111,-94.74722,10/16/2018,7/1/1996,"ESTHERVILLE MUNICIPAL AIRPORT, IA US",3.081404315,16,-94.73740722,42.59949715,0.801672912,Pomeroy I
0.9937,368.8,METERS,GHCND_USC00131442,42.7572,-95.5377,10/17/2018,11/13/1921,"CHEROKEE, IA US",3.081404315,16,-94.73740722,42.59949715,0.81568298,Pomeroy I
0.9862,1351.8,METERS,GHCND_USC00291963,34.5988,-103.2161,10/17/2018,6/21/1949,"CLOVIS 13 N, NM US",3.081404315,16,-102.4691167,34.57434908,0.747383317,Bethel
0.9492,1098.5,METERS,GHCND_USW00023047,35.2295,-101.7042,10/16/2018,3/1/1943,"AMARILLO AIRPORT, TX US",3.081404315,16,-102.4691167,34.57434908,1.007134727,Bethel
0.5731,989.1,METERS,GHCND_USC00415410,33.6897,-101.8219,10/17/2018,3/1/1911,"LUBBOCK 9 N, TX US",3.081404315,16,-102.4691167,34.57434908,1.096126599,Bethel
0.2393,150.6,METERS,GHCND_USW00012907,27.53333,-99.46667,10/16/2018,3/15/1965,"LAREDO INTERNATIONAL AIRPORT, TX US",2.567836929,15,-98.91778322,27.45943533,0.553838532,Javelina II
0.7522,131.1,METERS,GHCND_USC00415060,27.5684,-99.4982,10/16/2018,9/1/1946,"LAREDO 2, TX US",2.567836929,15,-98.91778322,27.45943533,0.590556465,Javelina II
0.9837,97.5,METERS,GHCND_USC00413060,26.558,-99.1372,10/17/2018,7/1/1962,"FALCON DAM, TX US",2.567836929,15,-98.91778322,27.45943533,0.92775502,Javelina II
0.8607,1309.4,METERS,GHCND_USW00024030,41.0993,-102.9863,10/16/2018,1/1/1948,"SIDNEY MUNICIPAL AIRPORT, NE US",2.139864108,14,-103.0199606,40.9630556,0.140340909,Spring Canyon
0.9988,1130.5,METERS,GHCND_USC00051996,40.86,-102.803,10/17/2018,3/1/1996,"CROOK, CO US",2.139864108,14,-103.0199606,40.9630556,0.240192314,Spring Canyon
0.9565,1316.7,METERS,GHCND_USC00257830,41.2294,-103.0214,9/30/2018,12/1/1908,"SIDNEY 6 NNW, NE US",2.139864108,14,-103.0199606,40.9630556,0.26634829,Spring Canyon
0.9637,179.8,METERS,GHCND_USW00094898,44.02194,-82.79306,10/15/2018,6/24/1999,"PORT HOPE, MI US",2.567836929,15,-83.17823541,43.89107687,0.406798793,Echo
0.9098,178.6,METERS,GHCND_USC00202423,44.2838,-83.5036,10/17/2018,1890-04-01,"EAST TAWAS, MI US",2.567836929,15,-83.17823541,43.89107687,0.509993695,Echo
0.8035,256.6,METERS,GHCND_USC00203527,44.3127,-83.8272,9/30/2009,2/1/2002,"HALE 5 SSW, MI US",2.567836929,15,-83.17823541,43.89107687,0.773899926,Echo
0.9964,694.9,METERS,GHCND_USC00414967,33.06417,-101.04889,10/17/2018,5/1/1994,"LAKE ALAN HENRY, TX US",2.567836929,15,-100.9886488,32.8924993,0.181933597,Amazon Wind Farm Texas
0.7781,700.1,METERS,GHCND_USC00418566,33.47917,-100.87611,10/16/2018,5/1/1911,"SPUR, TX US",2.567836929,15,-100.9886488,32.8924993,0.59736713,Amazon Wind Farm Texas
0.9252,765,METERS,GHCND_USW00023041,32.2443,-101.4537,10/17/2018,1/1/1948,"BIG SPRING, TX US",2.567836929,15,-100.9886488,32.8924993,0.797768743,Amazon Wind Farm Texas
0.5051,538.3,METERS,GHCND_USW00024220,47.03389,-120.53028,10/15/2018,5/4/1940,"ELLENSBURG BOWERS FIELD, WA US",1.238347284,11,-120.1618129,46.95391605,0.377046183,Vantage Point
0.9507,130.5,METERS,GHCND_USC00456747,46.646,-119.9061,10/16/2018,12/6/1956,"PRIEST RAPIDS DAM, WA US",1.238347284,11,-120.1618129,46.95391605,0.400251658,Vantage Point
0.9683,392,METERS,GHCND_USC00456880,47.2235,-119.8524,7/28/2018,3/1/1941,"QUINCY, WA US",1.238347284,11,-120.1618129,46.95391605,0.41038014,Vantage Point
0.9252,765,METERS,GHCND_USW00023041,32.2443,-101.4537,10/17/2018,1/1/1948,"BIG SPRING, TX US",3.697685178,17,-101.8141163,32.21043658,0.362003688,Stanton Energy Center
1,872.3,METERS,GHCND_USW00023023,31.9475,-102.2086,10/16/2018,6/1/1930,"MIDLAND INTERNATIONAL AIRPORT, TX US",3.697685178,17,-101.8141163,32.21043658,0.47408122,Stanton Energy Center
0.9977,914.7,METERS,GHCND_USW00003031,31.92056,-102.38667,10/16/2018,12/1/1998,"ODESSA SCHLEMEYER FIELD, TX US",3.697685178,17,-101.8141163,32.21043658,0.641752386,Stanton Energy Center
0.9252,765,METERS,GHCND_USW00023041,32.2443,-101.4537,10/17/2018,1/1/1948,"BIG SPRING, TX US",3.081404315,16,-101.1166873,31.99235138,0.420779835,Panther Creek III
0.8222,598.6,METERS,GHCND_USC00416499,31.45389,-100.49333,1/31/2008,12/1/1975,"O C FISHER DAM, TX US",3.081404315,16,-101.1166873,31.99235138,0.823720205,Panther Creek III
0.2272,576.1,METERS,GHCND_USC00417944,31.37083,-100.49432,10/17/2018,11/1/1947,"SAN ANGELO WEATHER FORECAST OFFICE, TX US",3.081404315,16,-101.1166873,31.99235138,0.879562322,Panther Creek III
0.9939,401.4,METERS,GHCND_USW00094971,43.40111,-94.74722,10/16/2018,7/1/1996,"ESTHERVILLE MUNICIPAL AIRPORT, IA US",3.081404315,16,-94.85385597,43.79362158,0.406738948,Trimont Wind
0.9974,347.5,METERS,GHCND_USC00214546,44.2395,-95.3152,10/2/2018,1/1/1961,"LAMBERTON SOUTHWEST RESEARCH AND OUTREACH CENTER, MN US",3.081404315,16,-94.85385597,43.79362158,0.641596351,Trimont Wind
0.9943,407.8,METERS,GHCND_USW00014972,43.16444,-95.20167,10/15/2018,10/1/1996,"SPENCER MUNICIPAL AIRPORT, IA US",3.081404315,16,-94.85385597,43.79362158,0.718918676,Trimont Wind
0.9804,545.6,METERS,GHCND_USW00013962,32.4105,-99.6822,10/16/2018,8/1/1946,"ABILENE REGIONAL AIRPORT, TX US",2.567836929,15,-100.2462056,32.20687832,0.599636688,Turkey Track
0.9411,594.1,METERS,GHCND_USC00414278,31.84555,-99.56068,10/17/2018,7/1/1953,"HORDS CREEK DAM, TX US",2.567836929,15,-100.2462056,32.20687832,0.774921651,Turkey Track
0.8222,598.6,METERS,GHCND_USC00416499,31.45389,-100.49333,1/31/2008,12/1/1975,"O C FISHER DAM, TX US",2.567836929,15,-100.2462056,32.20687832,0.792503536,Turkey Track
0.9964,694.9,METERS,GHCND_USC00414967,33.06417,-101.04889,10/17/2018,5/1/1994,"LAKE ALAN HENRY, TX US",3.081404315,16,-100.7387427,32.46300559,0.676453978,Loraine
0.9252,765,METERS,GHCND_USW00023041,32.2443,-101.4537,10/17/2018,1/1/1948,"BIG SPRING, TX US",3.081404315,16,-100.7387427,32.46300559,0.747660393,Loraine
0.7781,700.1,METERS,GHCND_USC00418566,33.47917,-100.87611,10/16/2018,5/1/1911,"SPUR, TX US",3.081404315,16,-100.7387427,32.46300559,1.025407174,Loraine
0.9877,2013.5,METERS,GHCND_USW00003195,35.94611,-112.15472,10/16/2018,7/1/1996,"GRAND CANYON NATIONAL PARK AIRPORT, AZ US",2.139864108,14,-112.2897498,35.42978244,0.533692036,Perrin Ranch
0.9732,2239.4,METERS,GHCND_USC00023160,35.2681,-111.7428,6/20/2018,1/1/1909,"FORT VALLEY, AZ US",2.139864108,14,-112.2897498,35.42978244,0.570346603,Perrin Ranch
0.9308,2068.1,METERS,GHCND_USC00023596,36.0527,-112.1502,3/31/2012,5/1/1976,"GRAND CANYON NATIONAL PARK 2, AZ US",2.139864108,14,-112.2897498,35.42978244,0.638357601,Perrin Ranch
0.6669,701,METERS,GHCND_USC00465224,37.8566,-80.4042,10/17/2018,1851-04-01,"LEWISBURG 3 N, WV US",2.567836929,15,-80.52286531,38.07845545,0.251597489,Beech Ridge
0.9982,423.7,METERS,GHCND_USC00460939,37.64128,-80.88331,10/17/2018,3/1/1943,"BLUESTONE LAKE, WV US",2.567836929,15,-80.52286531,38.07845545,0.56660634,Beech Ridge
0.9971,539.5,METERS,GHCND_USC00443310,37.9458,-79.9542,10/17/2018,6/1/1980,"GATHRIGHT DAM, VA US",2.567836929,15,-80.52286531,38.07845545,0.583932964,Beech Ridge
0.9863,215.8,METERS,GHCND_USC00129430,40.475,-86.9919,10/17/2018,1/1/1901,"WEST LAFAYETTE 6 NW, IN US",2.139864108,14,-87.57918481,40.72323134,0.63759097,Settler's Trail
0.7581,230.1,METERS,GHCND_USW00014806,40.313,-88.1598,10/15/2018,1893-01-01,"RANTOUL, IL US",2.139864108,14,-87.57918481,40.72323134,0.710917543,Settler's Trail
0.926,182.6,METERS,GHCND_USW00014835,40.41222,-86.93694,10/16/2018,1/1/1944,"LAFAYETTE PURDUE UNIVERSITY AIRPORT, IN US",2.139864108,14,-87.57918481,40.72323134,0.713587029,Settler's Trail
0.9863,215.8,METERS,GHCND_USC00129430,40.475,-86.9919,10/17/2018,1/1/1901,"WEST LAFAYETTE 6 NW, IN US",2.567836929,15,-87.45743543,40.67916029,0.508335182,Benton County Wind Farm
0.926,182.6,METERS,GHCND_USW00014835,40.41222,-86.93694,10/16/2018,1/1/1944,"LAFAYETTE PURDUE UNIVERSITY AIRPORT, IN US",2.567836929,15,-87.45743543,40.67916029,0.584955218,Benton County Wind Farm
0.995,205.7,METERS,GHCND_USC00116344,40.1101,-87.9567,10/17/2018,11/1/2001,"OGDEN, IL US",2.567836929,15,-87.45743543,40.67916029,0.757030198,Benton County Wind Farm
0.9995,304.8,METERS,GHCND_USW00013969,36.73667,-97.10194,10/16/2018,1/1/1948,"PONCA CITY MUNICIPAL AIRPORT, OK US",1.78322009,13,-96.65345768,36.70667368,0.44948434,Osage Wind
0.9908,350.5,METERS,GHCND_USW00013932,37.16806,-97.03694,10/15/2018,7/1/1996,"WINFIELD STROTHER FIELD AIRPORT, KS US",1.78322009,13,-96.65345768,36.70667368,0.599946688,Osage Wind
0.9361,217.9,METERS,GHCND_USW00003959,36.7683,-96.0261,10/16/2018,1/1/1920,"BARTLESVILLE MUNICIPAL AIRPORT, OK US",1.78322009,13,-96.65345768,36.70667368,0.630377237,Osage Wind
0.9863,215.8,METERS,GHCND_USC00129430,40.475,-86.9919,10/17/2018,1/1/1901,"WEST LAFAYETTE 6 NW, IN US",2.139864108,14,-87.48510934,40.69207497,0.538866398,Goodland I
0.926,182.6,METERS,GHCND_USW00014835,40.41222,-86.93694,10/16/2018,1/1/1944,"LAFAYETTE PURDUE UNIVERSITY AIRPORT, IN US",2.139864108,14,-87.48510934,40.69207497,0.615474149,Goodland I
0.995,205.7,METERS,GHCND_USC00116344,40.1101,-87.9567,10/17/2018,11/1/2001,"OGDEN, IL US",2.139864108,14,-87.48510934,40.69207497,0.749061159,Goodland I
0.9999,198.1,METERS,GHCND_USW00014842,40.6675,-89.6839,10/16/2018,5/4/1943,"PEORIA INTERNATIONAL AIRPORT, IL US",3.697685178,17,-89.41575885,40.3326097,0.429011879,Rail Splitter
0.9999,181.1,METERS,GHCND_USW00093822,39.8447,-89.6839,10/16/2018,1/1/1901,"SPRINGFIELD ABRAHAM LINCOLN CAPITAL AIRPORT, IL US",3.697685178,17,-89.41575885,40.3326097,0.556736517,Rail Splitter
0.9987,205.7,METERS,GHCND_USW00003887,39.83444,-88.86556,10/16/2018,11/1/2000,"DECATUR AIRPORT, IL US",3.697685178,17,-89.41575885,40.3326097,0.74222087,Rail Splitter
0.9945,1408.8,METERS,GHCND_USC00057866,37.36944,-102.74278,5/31/2002,9/1/1956,"SPRINGFIELD 7 WSW, CO US",1.78322009,13,-102.8597162,37.67288118,0.325193218,Twin Buttes
0.9511,1162.5,METERS,GHCND_USC00054388,38.0634,-102.9298,10/17/2018,8/1/1941,"JOHN MARTIN DAM, CO US",1.78322009,13,-102.8597162,37.67288118,0.396757716,Twin Buttes
0.987,1129,METERS,GHCND_USW00003013,38.07,-102.68806,10/16/2018,7/1/1996,"LAMAR MUNICIPAL AIRPORT, CO US",1.78322009,13,-102.8597162,37.67288118,0.432630576,Twin Buttes
0.9937,368.8,METERS,GHCND_USC00131442,42.7572,-95.5377,10/17/2018,11/13/1921,"CHEROKEE, IA US",2.567836929,15,-95.31330339,42.51814405,0.327874347,Intrepid
0.9943,407.8,METERS,GHCND_USW00014972,43.16444,-95.20167,10/15/2018,10/1/1996,"SPENCER MUNICIPAL AIRPORT, IA US",2.567836929,15,-95.31330339,42.51814405,0.655866198,Intrepid
0.9907,426.7,METERS,GHCND_USC00131277,42.0633,-95.8363,1/16/2018,7/1/1948,"CASTANA EXPERIMENTAL FARM, IA US",2.567836929,15,-95.31330339,42.51814405,0.693115116,Intrepid
0.7781,700.1,METERS,GHCND_USC00418566,33.47917,-100.87611,10/16/2018,5/1/1911,"SPUR, TX US",2.567836929,15,-100.9841689,33.76395802,0.304599632,McAdoo
0.9964,694.9,METERS,GHCND_USC00414967,33.06417,-101.04889,10/17/2018,5/1/1994,"LAKE ALAN HENRY, TX US",2.567836929,15,-100.9841689,33.76395802,0.702774571,McAdoo
0.5731,989.1,METERS,GHCND_USC00415410,33.6897,-101.8219,10/17/2018,3/1/1911,"LUBBOCK 9 N, TX US",2.567836929,15,-100.9841689,33.76395802,0.841015874,McAdoo
0.9942,195.7,METERS,GHCND_USW00003991,33.20611,-97.19889,10/16/2018,7/1/1996,"DENTON MUNICPAL AIRPORT, TX US",2.567836929,15,-97.40641697,33.73178472,0.565156046,Wolf Ridge
0.9792,192,METERS,GHCND_USC00412404,33.1991,-97.1049,10/12/2018,6/1/1913,"DENTON 2 SE, TX US",2.567836929,15,-97.40641697,33.73178472,0.612099253,Wolf Ridge
0.9977,208.8,METERS,GHCND_USW00053909,32.97333,-97.31806,10/16/2018,10/1/1997,"FORT WORTH ALLIANCE AIRPORT, TX US",2.567836929,15,-97.40641697,33.73178472,0.763583995,Wolf Ridge
0.9964,694.9,METERS,GHCND_USC00414967,33.06417,-101.04889,10/17/2018,5/1/1994,"LAKE ALAN HENRY, TX US",3.081404315,16,-100.8078339,32.7648556,0.384313856,Camp Springs
0.7781,700.1,METERS,GHCND_USC00418566,33.47917,-100.87611,10/16/2018,5/1/1911,"SPUR, TX US",3.081404315,16,-100.8078339,32.7648556,0.717569987,Camp Springs
0.9252,765,METERS,GHCND_USW00023041,32.2443,-101.4537,10/17/2018,1/1/1948,"BIG SPRING, TX US",3.081404315,16,-100.8078339,32.7648556,0.829530656,Camp Springs
0.9867,460.9,METERS,GHCND_USC00148946,38.9667,-98.489,10/17/2018,8/1/1964,"WILSON LAKE, KS US",1.78322009,13,-98.24339702,38.88661147,0.258331174,Smoky Hills II
0.8924,454.8,METERS,GHCND_USC00144178,38.6078,-97.9596,10/17/2018,3/1/1941,"KANOPOLIS LAKE, KS US",1.78322009,13,-98.24339702,38.88661147,0.397839901,Smoky Hills II
0.9887,568.1,METERS,GHCND_USW00093997,38.87611,-98.80917,10/15/2018,9/1/1949,"RUSSELL MUNICIPAL AIRPORT, KS US",1.78322009,13,-98.24339702,38.88661147,0.565870432,Smoky Hills II
0.667,249.3,METERS,GHCND_USW00013993,39.7736,-94.9233,10/16/2018,1/1/1948,"ST JOSEPH ROSECRANS MEMORIAL AIRPORT, MO US",2.567836929,15,-94.50754508,39.98894686,0.468216215,Lost Creek Ridge Wind Farm
0.8421,275.5,METERS,GHCND_USC00237862,39.3903,-94.5553,10/17/2018,11/1/1981,"SMITHVILLE LAKE, MO US",2.567836929,15,-94.50754508,39.98894686,0.600548579,Lost Creek Ridge Wind Farm
1,306.3,METERS,GHCND_USW00003947,39.2972,-94.7306,10/16/2018,10/1/1972,"KANSAS CITY INTERNATIONAL AIRPORT, MO US",2.567836929,15,-94.50754508,39.98894686,0.726819933,Lost Creek Ridge Wind Farm
0.9943,407.8,METERS,GHCND_USW00014972,43.16444,-95.20167,10/15/2018,10/1/1996,"SPENCER MUNICIPAL AIRPORT, IA US",3.081404315,16,-94.74662402,42.58957618,0.733167955,Pomeroy II (4Q07)
0.9937,368.8,METERS,GHCND_USC00131442,42.7572,-95.5377,10/17/2018,11/13/1921,"CHEROKEE, IA US",3.081404315,16,-94.74662402,42.58957618,0.808640185,Pomeroy II (4Q07)
0.9939,401.4,METERS,GHCND_USW00094971,43.40111,-94.74722,10/16/2018,7/1/1996,"ESTHERVILLE MUNICIPAL AIRPORT, IA US",3.081404315,16,-94.74662402,42.58957618,0.811534035,Pomeroy II (4Q07)
0.9899,387.1,METERS,GHCND_USC00133632,41.6452,-95.3339,2/24/2016,1899-02-01,"HARLAN, IA US",3.081404315,16,-94.94529587,42.15006409,0.637103539,Carroll
0.9937,368.8,METERS,GHCND_USC00131442,42.7572,-95.5377,10/17/2018,11/13/1921,"CHEROKEE, IA US",3.081404315,16,-94.94529587,42.15006409,0.84826686,Carroll
0.9907,426.7,METERS,GHCND_USC00131277,42.0633,-95.8363,1/16/2018,7/1/1948,"CASTANA EXPERIMENTAL FARM, IA US",3.081404315,16,-94.94529587,42.15006409,0.895218614,Carroll
0.9252,765,METERS,GHCND_USW00023041,32.2443,-101.4537,10/17/2018,1/1/1948,"BIG SPRING, TX US",3.081404315,16,-101.4228203,32.02891341,0.217588916,Panther Creek I
1,872.3,METERS,GHCND_USW00023023,31.9475,-102.2086,10/16/2018,6/1/1930,"MIDLAND INTERNATIONAL AIRPORT, TX US",3.081404315,16,-101.4228203,32.02891341,0.789985963,Panther Creek I
0.9977,914.7,METERS,GHCND_USW00003031,31.92056,-102.38667,10/16/2018,12/1/1998,"ODESSA SCHLEMEYER FIELD, TX US",3.081404315,16,-101.4228203,32.02891341,0.969920943,Panther Creek I
0.8602,503.2,METERS,GHCND_USW00024011,46.7825,-100.7572,10/16/2018,7/1/1936,"BISMARCK MUNICIPAL AIRPORT, ND US",2.139864108,14,-100.6951065,47.13505885,0.357985119,Baldwin
0.9915,533.4,METERS,GHCND_USC00325479,46.8127,-100.9097,9/4/2018,7/16/1913,"MANDAN EXPERIMENT STATION, ND US",2.139864108,14,-100.6951065,47.13505885,0.38725392,Baldwin
0.9203,577,METERS,GHCND_USC00328840,47.5213,-100.8883,10/7/2018,9/1/1912,"TURTLE LAKE, ND US",2.139864108,14,-100.6951065,47.13505885,0.431863352,Baldwin
0.9939,283.5,METERS,GHCND_USW00014777,41.3336,-75.7269,10/16/2018,1/1/1949,"WILKES BARRE SCRANTON INTERNATIONAL AIRPORT, PA US",2.139864108,14,-76.07719258,41.46764411,0.375063616,Mehoopany
0.8975,459.9,METERS,GHCND_USC00363018,41.1184,-75.7277,10/16/2018,10/1/1963,"FRANCIS E WALTER DAM, PA US",2.139864108,14,-76.07719258,41.46764411,0.494081485,Mehoopany
0.9293,145.7,METERS,GHCND_USC00362013,40.9591,-76.6176,7/15/2011,11/6/1939,"DANVILLE, PA US",2.139864108,14,-76.07719258,41.46764411,0.742062865,Mehoopany
0.6424,181.1,METERS,GHCND_USW00014834,41.5,-88.16667,10/17/2018,1893-11-01,"JOLIET, IL US",2.567836929,15,-88.53868195,41.16239508,0.502364378,Blackstone (Top Crop) II
0.9985,216.4,METERS,GHCND_USW00004808,41.77,-88.48139,10/15/2018,10/8/1998,"CHICAGO AURORA MUNICIPAL AIRPORT, IL US",2.567836929,15,-88.53868195,41.16239508,0.61030001,Blackstone (Top Crop) II
0.9691,140.2,METERS,GHCND_USC00114013,41.26472,-89.33806,6/30/2009,8/1/1962,"HENNEPIN POWER PLANT, IL US",2.567836929,15,-88.53868195,41.16239508,0.805900528,Blackstone (Top Crop) II
0.995,474.3,METERS,GHCND_USW00093986,34.9894,-99.0525,10/16/2018,1/1/1910,"HOBART MUNICIPAL AIRPORT, OK US",2.139864108,14,-99.00095209,35.12939067,0.149179671,Rocky Ridge I
0.5464,585.8,METERS,GHCND_USW00003932,35.3568,-99.2042,10/16/2018,8/17/1958,"CLINTON SHERMAN AIRPORT, OK US",2.139864108,14,-99.00095209,35.12939067,0.30499954,Rocky Ridge I
0.9498,464.8,METERS,GHCND_USC00340184,34.8847,-99.2964,10/17/2018,8/1/1945,"ALTUS DAM, OK US",2.139864108,14,-99.00095209,35.12939067,0.38361829,Rocky Ridge I
0.9526,365.8,METERS,GHCND_USC00343740,36.7425,-98.133,9/10/2018,3/12/1946,"GREAT SALT PLAINS DAM, OK US",1.78322009,13,-97.69082415,36.5584013,0.478969536,Chisholm View II
0.9995,304.8,METERS,GHCND_USW00013969,36.73667,-97.10194,10/16/2018,1/1/1948,"PONCA CITY MUNICIPAL AIRPORT, OK US",1.78322009,13,-97.69082415,36.5584013,0.615275768,Chisholm View II
0.9704,414.5,METERS,GHCND_USW00013980,37.155,-98.0282,10/17/2018,1896-10-01,"ANTHONY, KS US",1.78322009,13,-97.69082415,36.5584013,0.685384913,Chisholm View II
0.9756,298.7,METERS,GHCND_USW00094957,40.08028,-95.59194,10/16/2018,3/1/1912,"FALLS CITY BRENNER FIELD, NE US",2.567836929,15,-95.90447082,40.00568612,0.32130945,Flat Water
0.8829,318.5,METERS,GHCND_USW00014945,40.43444,-95.38833,8/30/2008,6/1/1912,"TARKIO, MO US",2.567836929,15,-95.90447082,40.00568612,0.670992725,Flat Water
0.5855,347.5,METERS,GHCND_USC00137669,40.736,-95.643,5/1/2018,1895-04-01,"SIDNEY 1 SSE, IA US",2.567836929,15,-95.90447082,40.00568612,0.775709577,Flat Water
0.9939,401.4,METERS,GHCND_USW00094971,43.40111,-94.74722,10/16/2018,7/1/1996,"ESTHERVILLE MUNICIPAL AIRPORT, IA US",3.081404315,16,-95.14048561,43.67217285,0.477632603,Lakefield (phase I)
0.9943,407.8,METERS,GHCND_USW00014972,43.16444,-95.20167,10/15/2018,10/1/1996,"SPENCER MUNICIPAL AIRPORT, IA US",3.081404315,16,-95.14048561,43.67217285,0.511406075,Lakefield (phase I)
0.9974,347.5,METERS,GHCND_USC00214546,44.2395,-95.3152,10/2/2018,1/1/1961,"LAMBERTON SOUTHWEST RESEARCH AND OUTREACH CENTER, MN US",3.081404315,16,-95.14048561,43.67217285,0.593620433,Lakefield (phase I)
0.9252,765,METERS,GHCND_USW00023041,32.2443,-101.4537,10/17/2018,1/1/1948,"BIG SPRING, TX US",2.567836929,15,-101.3008169,31.93693143,0.34329097,Panther Creek II
1,872.3,METERS,GHCND_USW00023023,31.9475,-102.2086,10/16/2018,6/1/1930,"MIDLAND INTERNATIONAL AIRPORT, TX US",2.567836929,15,-101.3008169,31.93693143,0.907844648,Panther Creek II
0.8222,598.6,METERS,GHCND_USC00416499,31.45389,-100.49333,1/31/2008,12/1/1975,"O C FISHER DAM, TX US",2.567836929,15,-101.3008169,31.93693143,0.940937866,Panther Creek II
0.9989,201.2,METERS,GHCND_USW00014845,43.53306,-84.07972,10/16/2018,1898-01-01,"SAGINAW MBS INTERNATIONAL AIRPORT, MI US",2.567836929,15,-83.55797383,43.53617895,0.521755492,Tuscola II
1,234.7,METERS,GHCND_USW00014826,42.9666,-83.7494,10/16/2018,5/2/1948,"FLINT BISHOP INTERNATIONAL AIRPORT, MI US",2.567836929,15,-83.55797383,43.53617895,0.600886144,Tuscola II
0.9098,178.6,METERS,GHCND_USC00202423,44.2838,-83.5036,10/17/2018,1890-04-01,"EAST TAWAS, MI US",2.567836929,15,-83.55797383,43.53617895,0.749595724,Tuscola II
0.9932,497.4,METERS,GHCND_USC00391076,44.3252,-96.7686,10/16/2018,1893-01-01,"BROOKINGS 2 NE, SD US",3.081404315,16,-96.06648573,44.1111067,0.734030241,Moraine II
0.9974,347.5,METERS,GHCND_USC00214546,44.2395,-95.3152,10/2/2018,1/1/1961,"LAMBERTON SOUTHWEST RESEARCH AND OUTREACH CENTER, MN US",3.081404315,16,-96.06648573,44.1111067,0.762177856,Moraine II
0.9561,435.9,METERS,GHCND_USC00397666,43.5877,-96.73,10/17/2018,1/1/2011,"SIOUX FALLS WEATHER FORECAST OFFICE AIRPORT, SD US",3.081404315,16,-96.06648573,44.1111067,0.845106952,Moraine II
0.9964,694.9,METERS,GHCND_USC00414967,33.06417,-101.04889,10/17/2018,5/1/1994,"LAKE ALAN HENRY, TX US",2.139864108,14,-101.2236474,32.95950634,0.203702272,Red Canyon
0.7781,700.1,METERS,GHCND_USC00418566,33.47917,-100.87611,10/16/2018,5/1/1911,"SPUR, TX US",2.139864108,14,-101.2236474,32.95950634,0.625166006,Red Canyon
0.9252,765,METERS,GHCND_USW00023041,32.2443,-101.4537,10/17/2018,1/1/1948,"BIG SPRING, TX US",2.139864108,14,-101.2236474,32.95950634,0.751295099,Red Canyon
0.9084,502.9,METERS,GHCND_USC00253075,41.3594,-97.9761,11/30/2013,3/1/1901,"FULLERTON, NE US",2.567836929,15,-97.97385781,41.86455256,0.505157532,Petersburg
1,472.7,METERS,GHCND_USW00014941,41.9855,-97.4352,10/16/2018,10/1/1945,"NORFOLK KARL STEFAN MEMORIAL AIRPORT, NE US",2.567836929,15,-97.97385781,41.86455256,0.552069312,Petersburg
0.9788,515.1,METERS,GHCND_USC00256396,42.3691,-97.5983,7/31/2013,9/1/2008,"OSMOND NUMBER 1, NE US",2.567836929,15,-97.97385781,41.86455256,0.628976785,Petersburg
0.9943,407.8,METERS,GHCND_USW00014972,43.16444,-95.20167,10/15/2018,10/1/1996,"SPENCER MUNICIPAL AIRPORT, IA US",3.081404315,16,-94.78056038,42.60906835,0.69697273,Pomeroy III
0.9937,368.8,METERS,GHCND_USC00131442,42.7572,-95.5377,10/17/2018,11/13/1921,"CHEROKEE, IA US",3.081404315,16,-94.78056038,42.60906835,0.771494263,Pomeroy III
0.9939,401.4,METERS,GHCND_USW00094971,43.40111,-94.74722,10/16/2018,7/1/1996,"ESTHERVILLE MUNICIPAL AIRPORT, IA US",3.081404315,16,-94.78056038,42.60906835,0.792743058,Pomeroy III
0.9953,1277.7,METERS,GHCND_USW00003026,39.24472,-102.28417,10/16/2018,6/1/1997,"BURLINGTON CARSON AIRPORT, CO US",2.567836929,15,-102.3288462,39.36791665,0.131047233,Kit Carson Project
0.939,1132.9,METERS,GHCND_USC00050834,39.6567,-102.1193,7/9/2018,6/1/1949,"BONNY DAM 2 NE, CO US",2.567836929,15,-102.3288462,39.36791665,0.356798875,Kit Carson Project
0.897,1114.3,METERS,GHCND_USW00023065,39.36722,-101.69333,10/16/2018,1895-06-01,"GOODLAND RENNER FIELD, KS US",2.567836929,15,-102.3288462,39.36791665,0.635516588,Kit Carson Project
0.8412,570,METERS,GHCND_USC00355734,45.4825,-120.7236,10/11/2018,1897-11-01,"MORO, OR US",2.567836929,15,-120.2818609,45.88289939,0.596198867,Big Horn
0.9283,253,METERS,GHCND_USC00456768,46.2014,-119.758,10/17/2018,7/1/1925,"PROSSER, WA US",2.567836929,15,-120.2818609,45.88289939,0.61308474,Big Horn
1,324.3,METERS,GHCND_USW00024243,46.5683,-120.5428,10/16/2018,9/6/1946,"YAKIMA AIRPORT, WA US",2.567836929,15,-120.2818609,45.88289939,0.733391573,Big Horn
0.922,926,METERS,GHCND_USC00413280,30.9071,-102.9153,10/8/2018,5/1/1940,"FORT STOCKTON, TX US",3.081404315,16,-102.1198501,30.92669741,0.795691289,Desert Sky
0.9916,917.4,METERS,GHCND_USW00023091,30.91194,-102.91667,10/16/2018,7/1/1996,"FORT STOCKTON PECOS CO AIRPORT, TX US",3.081404315,16,-102.1198501,30.92669741,0.796956561,Desert Sky
0.9905,707.7,METERS,GHCND_USW00003032,30.04806,-102.21306,10/16/2018,6/15/1999,"DRYDEN TERRELL CO AIRPORT, TX US",3.081404315,16,-102.1198501,30.92669741,0.883567648,Desert Sky
0.9314,855.6,METERS,GHCND_USW00023040,31.7801,-103.2018,10/16/2018,6/1/1938,"WINKLER CO AIRPORT, TX US",3.081404315,16,-102.8211833,31.96511003,0.423199503,Notrees
0.9977,914.7,METERS,GHCND_USW00003031,31.92056,-102.38667,10/16/2018,12/1/1998,"ODESSA SCHLEMEYER FIELD, TX US",3.081404315,16,-102.8211833,31.96511003,0.436791105,Notrees
1,872.3,METERS,GHCND_USW00023023,31.9475,-102.2086,10/16/2018,6/1/1930,"MIDLAND INTERNATIONAL AIRPORT, TX US",3.081404315,16,-102.8211833,31.96511003,0.612836317,Notrees
0.2393,150.6,METERS,GHCND_USW00012907,27.53333,-99.46667,10/16/2018,3/15/1965,"LAREDO INTERNATIONAL AIRPORT, TX US",2.567836929,15,-98.91654308,27.18001667,0.653811856,Sendero
0.9837,97.5,METERS,GHCND_USC00413060,26.558,-99.1372,10/17/2018,7/1/1962,"FALCON DAM, TX US",2.567836929,15,-98.91654308,27.18001667,0.659995615,Sendero
0.7522,131.1,METERS,GHCND_USC00415060,27.5684,-99.4982,10/16/2018,9/1/1946,"LAREDO 2, TX US",2.567836929,15,-98.91654308,27.18001667,0.699404311,Sendero
0.9289,787,METERS,GHCND_USW00013985,37.7686,-99.9678,10/16/2018,4/1/1909,"DODGE CITY REGIONAL AIRPORT, KS US",3.081404315,16,-99.84624027,37.84068283,0.141324809,Spearville 3
0.9407,878.4,METERS,GHCND_USW00023064,37.92722,-100.72472,10/16/2018,3/1/1947,"GARDEN CITY REGIONAL AIRPORT, KS US",3.081404315,16,-99.84624027,37.84068283,0.882731737,Spearville 3
0.9731,650.7,METERS,GHCND_USC00141383,38.7978,-99.723,10/17/2018,8/1/1949,"CEDAR BLUFF DAM, KS US",3.081404315,16,-99.84624027,37.84068283,0.965018886,Spearville 3
0.9964,694.9,METERS,GHCND_USC00414967,33.06417,-101.04889,10/17/2018,5/1/1994,"LAKE ALAN HENRY, TX US",2.567836929,15,-101.6536026,32.90786845,0.624585843,Stephens Ranch 1
0.9252,765,METERS,GHCND_USW00023041,32.2443,-101.4537,10/17/2018,1/1/1948,"BIG SPRING, TX US",2.567836929,15,-101.6536026,32.90786845,0.693025343,Stephens Ranch 1
0.981,991.8,METERS,GHCND_USW00023042,33.6656,-101.8231,10/16/2018,8/10/1945,"LUBBOCK INTERNATIONAL AIRPORT, TX US",2.567836929,15,-101.6536026,32.90786845,0.776457648,Stephens Ranch 1
0.9283,253,METERS,GHCND_USC00456768,46.2014,-119.758,10/17/2018,7/1/1925,"PROSSER, WA US",2.567836929,15,-120.0756968,45.74884908,0.552931799,Shepherds Flat (2011)
0.8412,570,METERS,GHCND_USC00355734,45.4825,-120.7236,10/11/2018,1897-11-01,"MORO, OR US",2.567836929,15,-120.0756968,45.74884908,0.700514397,Shepherds Flat (2011)
0.9957,195.4,METERS,GHCND_USW00004113,45.82583,-119.26111,10/16/2018,3/16/1998,"HERMISTON MUNICIPAL AIRPORT, OR US",2.567836929,15,-120.0756968,45.74884908,0.818216156,Shepherds Flat (2011)
0.9964,522.7,METERS,GHCND_USW00094052,45.54639,-100.40778,10/16/2018,1/1/1998,"MOBRIDGE MUNICIPAL AIRPORT, SD US",4.437222213,18,-100.2751613,45.78931664,0.27676897,Campbell County
0.7968,559.3,METERS,GHCND_USC00397277,45.4526,-99.3358,10/17/2018,12/1/1934,"ROSCOE, SD US",4.437222213,18,-100.2751613,45.78931664,0.997886665,Campbell County
0.8602,503.2,METERS,GHCND_USW00024011,46.7825,-100.7572,10/16/2018,7/1/1936,"BISMARCK MUNICIPAL AIRPORT, ND US",4.437222213,18,-100.2751613,45.78931664,1.103981194,Campbell County
0.9939,401.4,METERS,GHCND_USW00094971,43.40111,-94.74722,10/16/2018,7/1/1996,"ESTHERVILLE MUNICIPAL AIRPORT, IA US",3.081404315,16,-94.94075274,43.75909698,0.406951599,Elm Creek
0.9974,347.5,METERS,GHCND_USC00214546,44.2395,-95.3152,10/2/2018,1/1/1961,"LAMBERTON SOUTHWEST RESEARCH AND OUTREACH CENTER, MN US",3.081404315,16,-94.94075274,43.75909698,0.609095892,Elm Creek
0.9943,407.8,METERS,GHCND_USW00014972,43.16444,-95.20167,10/15/2018,10/1/1996,"SPENCER MUNICIPAL AIRPORT, IA US",3.081404315,16,-94.94075274,43.75909698,0.649380278,Elm Creek
0.9965,352.7,METERS,GHCND_USC00410225,29.4608,-101.0286,10/15/2018,5/1/1964,"AMISTAD DAM, TX US",4.437222213,18,-100.7723954,29.767658,0.399753235,Rocksprings
0.8584,304.5,METERS,GHCND_USW00022010,29.3784,-100.927,10/16/2018,8/9/1946,"DEL RIO INTERNATIONAL AIRPORT, TX US",4.437222213,18,-100.7723954,29.767658,0.418836943,Rocksprings
0.7784,280.4,METERS,GHCND_USC00419268,29.185,-99.8325,3/31/2005,1/1/1982,"UVALDE 3 SW, TX US",4.437222213,18,-100.7723954,29.767658,1.105845214,Rocksprings
0.9983,264.6,METERS,GHCND_USW00094910,42.5544,-92.4011,10/16/2018,3/1/1950,"WATERLOO MUNICIPAL AIRPORT, IA US",3.081404315,16,-92.7264073,43.03166024,0.577583047,Charles City
0.9999,373.4,METERS,GHCND_USW00014940,43.1544,-93.3269,10/16/2018,1/1/1948,"MASON CITY MUNICIPAL AIRPORT, IA US",3.081404315,16,-92.7264073,43.03166024,0.612908257,Charles City
0.9749,307.8,METERS,GHCND_USC00136200,42.6467,-91.9131,10/31/2005,5/1/1923,"OELWEIN 2 S, IA US",3.081404315,16,-92.7264073,43.03166024,0.899812842,Charles City
0.9637,179.8,METERS,GHCND_USW00094898,44.02194,-82.79306,10/15/2018,6/24/1999,"PORT HOPE, MI US",2.567836929,15,-83.12266647,43.84277933,0.375151926,Pinnebog
0.9098,178.6,METERS,GHCND_USC00202423,44.2838,-83.5036,10/17/2018,1890-04-01,"EAST TAWAS, MI US",2.567836929,15,-83.12266647,43.84277933,0.582760315,Pinnebog
0.8035,256.6,METERS,GHCND_USC00203527,44.3127,-83.8272,9/30/2009,2/1/2002,"HALE 5 SSW, MI US",2.567836929,15,-83.12266647,43.84277933,0.846872442,Pinnebog
0.8602,503.2,METERS,GHCND_USW00024011,46.7825,-100.7572,10/16/2018,7/1/1936,"BISMARCK MUNICIPAL AIRPORT, ND US",2.139864108,14,-100.6995651,47.12268258,0.345030386,Wilton Wind Farm
0.9915,533.4,METERS,GHCND_USC00325479,46.8127,-100.9097,9/4/2018,7/16/1913,"MANDAN EXPERIMENT STATION, ND US",2.139864108,14,-100.6995651,47.12268258,0.374494162,Wilton Wind Farm
0.9203,577,METERS,GHCND_USC00328840,47.5213,-100.8883,10/7/2018,9/1/1912,"TURTLE LAKE, ND US",2.139864108,14,-100.6995651,47.12268258,0.441040493,Wilton Wind Farm
0.9943,407.8,METERS,GHCND_USW00014972,43.16444,-95.20167,10/15/2018,10/1/1996,"SPENCER MUNICIPAL AIRPORT, IA US",3.081404315,16,-95.29756403,43.38481962,0.240339017,Flying Cloud (Lake Park)
0.9939,401.4,METERS,GHCND_USW00094971,43.40111,-94.74722,10/16/2018,7/1/1996,"ESTHERVILLE MUNICIPAL AIRPORT, IA US",3.081404315,16,-95.29756403,43.38481962,0.550585082,Flying Cloud (Lake Park)
0.9937,368.8,METERS,GHCND_USC00131442,42.7572,-95.5377,10/17/2018,11/13/1921,"CHEROKEE, IA US",3.081404315,16,-95.29756403,43.38481962,0.671990826,Flying Cloud (Lake Park)
0.8354,278.3,METERS,GHCND_USC00300443,43.02966,-78.16822,10/17/2018,6/10/1911,"BATAVIA, NY US",1.78322009,13,-78.2608549,42.62293007,0.417145611,Noble Wethersfield
0.3575,208.8,METERS,GHCND_USW00094704,42.57083,-77.71333,10/15/2018,11/1/1945,"DANSVILLE MUNICIPAL AIRPORT, NY US",1.78322009,13,-78.2608549,42.62293007,0.549998126,Noble Wethersfield
0.9999,218.2,METERS,GHCND_USW00014733,42.9408,-78.7358,10/16/2018,5/1/1938,"BUFFALO NIAGARA INTERNATIONAL, NY US",1.78322009,13,-78.2608549,42.62293007,0.571501649,Noble Wethersfield
1,2214.7,METERS,GHCND_USW00024022,41.3167,-105.6833,10/16/2018,1/1/1948,"LARAMIE AIRPORT, WY US",2.567836929,15,-106.0111554,41.67507015,0.485714252,High Plains
0.903,2176.3,METERS,GHCND_USC00485435,41.34002,-105.60647,10/17/2018,5/1/1966,"LARAMIE 2 NW, WY US",2.567836929,15,-106.0111554,41.67507015,0.525384511,High Plains
0.9966,2252.5,METERS,GHCND_USC00485417,41.2847,-105.5319,10/11/2018,3/1/2009,"LARAMIE 4 SE, WY US",2.567836929,15,-106.0111554,41.67507015,0.618121835,High Plains
0.9401,310,METERS,GHCND_USW00013966,33.9786,-98.4928,10/16/2018,1897-01-01,"WICHITA FALLS MUNICIPAL AIRPORT, TX US",3.081404315,16,-98.37227085,33.50763267,0.486145554,Shannon
0.9027,283.5,METERS,GHCND_USW00093985,32.7816,-98.0602,10/16/2018,3/10/1948,"MINERAL WELLS AIRPORT, TX US",3.081404315,16,-98.37227085,33.50763267,0.790260499,Shannon
0.8552,355.7,METERS,GHCND_USC00414982,33.7542,-99.1442,10/17/2018,4/1/1962,"LAKE KEMP, TX US",3.081404315,16,-98.37227085,33.50763267,0.810351814,Shannon
0.8354,278.3,METERS,GHCND_USC00300443,43.02966,-78.16822,10/17/2018,6/10/1911,"BATAVIA, NY US",1.78322009,13,-78.25864031,42.54511716,0.492907286,Noble Bliss
0.996,647.4,METERS,GHCND_USW00054757,42.10944,-77.99194,10/15/2018,2/2/2000,"WELLSVILLE MUNICIPAL AIRPORT, NY US",1.78322009,13,-78.25864031,42.54511716,0.510826437,Noble Bliss
0.3575,208.8,METERS,GHCND_USW00094704,42.57083,-77.71333,10/15/2018,11/1/1945,"DANSVILLE MUNICIPAL AIRPORT, NY US",1.78322009,13,-78.25864031,42.54511716,0.545916191,Noble Bliss
0.975,805,METERS,GHCND_USW00003164,32.6261,-116.4681,10/16/2018,2/1/1998,"CAMPO ASOS, CA US",2.139864108,14,-116.2978899,32.76318375,0.218548433,Tule
0.4,-12.8,METERS,GHCND_USW00023199,32.81667,-115.68333,10/14/2018,2/1/1945,"EL CENTRO NAF, CA US",2.139864108,14,-116.2978899,32.76318375,0.616883058,Tule
0.9924,424.6,METERS,GHCND_USW00053120,33.0375,-116.91583,10/16/2018,4/16/1998,"RAMONA AIRPORT, CA US",2.139864108,14,-116.2978899,32.76318375,0.6760912,Tule
0.9492,1098.5,METERS,GHCND_USW00023047,35.2295,-101.7042,10/16/2018,3/1/1943,"AMARILLO AIRPORT, TX US",3.697685178,17,-102.0519222,34.77948865,0.568701081,Falvez Astra
0.9952,894.9,METERS,GHCND_USC00418040,35.7048,-101.5492,10/17/2018,10/1/1993,"SANFORD DAM, TX US",3.697685178,17,-102.0519222,34.77948865,1.053057772,Falvez Astra
0.5731,989.1,METERS,GHCND_USC00415410,33.6897,-101.8219,10/17/2018,3/1/1911,"LUBBOCK 9 N, TX US",3.697685178,17,-102.0519222,34.77948865,1.113799574,Falvez Astra
0.8354,278.3,METERS,GHCND_USC00300443,43.02966,-78.16822,10/17/2018,6/10/1911,"BATAVIA, NY US",2.139864108,14,-78.39379155,42.7440134,0.363973217,High Sheldon
0.9999,218.2,METERS,GHCND_USW00014733,42.9408,-78.7358,10/16/2018,5/1/1938,"BUFFALO NIAGARA INTERNATIONAL, NY US",2.139864108,14,-78.39379155,42.7440134,0.394581738,High Sheldon
0.4498,178.3,METERS,GHCND_USW00004724,43.10833,-78.93806,10/15/2018,6/13/1951,"NIAGARA FALLS INTERNATIONAL AIRPORT, NY US",2.139864108,14,-78.39379155,42.7440134,0.65494636,High Sheldon
0.9964,694.9,METERS,GHCND_USC00414967,33.06417,-101.04889,10/17/2018,5/1/1994,"LAKE ALAN HENRY, TX US",3.081404315,16,-100.7263235,32.46083198,0.684153438,Loraine Wind Park
0.9252,765,METERS,GHCND_USW00023041,32.2443,-101.4537,10/17/2018,1/1/1948,"BIG SPRING, TX US",3.081404315,16,-100.7263235,32.46083198,0.758922076,Loraine Wind Park
0.7781,700.1,METERS,GHCND_USC00418566,33.47917,-100.87611,10/16/2018,5/1/1911,"SPUR, TX US",3.081404315,16,-100.7263235,32.46083198,1.029295059,Loraine Wind Park
0.9749,618.7,METERS,GHCND_USC00343304,36.54417,-99.535,3/31/2012,7/1/1940,"FORT SUPPLY, OK US",3.697685178,17,-99.6047779,36.63978785,0.118371148,Centennial (1Q07)
0.6758,667.8,METERS,GHCND_USW00013975,36.2967,-99.7689,10/16/2018,5/1/1904,"GAGE AIRPORT, OK US",3.697685178,17,-99.6047779,36.63978785,0.380322674,Centennial (1Q07)
0.9285,484.6,METERS,GHCND_USC00341445,36.06167,-98.59,8/31/2002,5/6/1943,"CANTON, OK US",3.697685178,17,-99.6047779,36.63978785,1.167901723,Centennial (1Q07)
0.9804,545.6,METERS,GHCND_USW00013962,32.4105,-99.6822,10/16/2018,8/1/1946,"ABILENE REGIONAL AIRPORT, TX US",3.081404315,16,-100.211954,32.34234316,0.534120476,"Buffalo Gap, phase II"
0.9411,594.1,METERS,GHCND_USC00414278,31.84555,-99.56068,10/17/2018,7/1/1953,"HORDS CREEK DAM, TX US",3.081404315,16,-100.211954,32.34234316,0.819122275,"Buffalo Gap, phase II"
0.8222,598.6,METERS,GHCND_USC00416499,31.45389,-100.49333,1/31/2008,12/1/1975,"O C FISHER DAM, TX US",3.081404315,16,-100.211954,32.34234316,0.931944987,"Buffalo Gap, phase II"
0.8174,368.8,METERS,GHCND_USC00328937,46.9558,-98.0203,11/23/2011,1893-04-01,"VALLEY CITY 3 NNW, ND US",3.081404315,16,-97.92885197,47.34345273,0.398293082,Luverne
0.9998,455.4,METERS,GHCND_USW00014919,46.9258,-98.6691,10/16/2018,7/1/1948,"JAMESTOWN MUNICIPAL AIRPORT, ND US",3.081404315,16,-97.92885197,47.34345273,0.849941732,Luverne
0.9951,256.6,METERS,GHCND_USW00014916,47.9428,-97.1839,10/16/2018,8/7/1948,"GRAND FORKS INTERNATIONAL AIRPORT, ND US",3.081404315,16,-97.92885197,47.34345273,0.956122686,Luverne
0.8354,278.3,METERS,GHCND_USC00300443,43.02966,-78.16822,10/17/2018,6/10/1911,"BATAVIA, NY US",2.139864108,14,-78.24060376,42.7461636,0.292591209,Orangeville Wind
0.9999,218.2,METERS,GHCND_USW00014733,42.9408,-78.7358,10/16/2018,5/1/1938,"BUFFALO NIAGARA INTERNATIONAL, NY US",2.139864108,14,-78.24060376,42.7461636,0.532073909,Orangeville Wind
0.3575,208.8,METERS,GHCND_USW00094704,42.57083,-77.71333,10/15/2018,11/1/1945,"DANSVILLE MUNICIPAL AIRPORT, NY US",2.139864108,14,-78.24060376,42.7461636,0.555661308,Orangeville Wind
0.8412,570,METERS,GHCND_USC00355734,45.4825,-120.7236,10/11/2018,1897-11-01,"MORO, OR US",3.081404315,16,-120.2097647,45.65245988,0.541214416,Leaning Juniper (Arlington)
0.9283,253,METERS,GHCND_USC00456768,46.2014,-119.758,10/17/2018,7/1/1925,"PROSSER, WA US",3.081404315,16,-120.2097647,45.65245988,0.710933631,Leaning Juniper (Arlington)
0.9975,71.6,METERS,GHCND_USW00024219,45.6194,-121.1661,10/15/2018,7/1/1948,"DALLESPORT AIRPORT, WA US",3.081404315,16,-120.2097647,45.65245988,0.956906527,Leaning Juniper (Arlington)
0.9964,694.9,METERS,GHCND_USC00414967,33.06417,-101.04889,10/17/2018,5/1/1994,"LAKE ALAN HENRY, TX US",3.081404315,16,-100.7927011,32.71320531,0.434521517,Camp Springs II (08)
0.7781,700.1,METERS,GHCND_USC00418566,33.47917,-100.87611,10/16/2018,5/1/1911,"SPUR, TX US",3.081404315,16,-100.7927011,32.71320531,0.770492663,Camp Springs II (08)
0.9252,765,METERS,GHCND_USW00023041,32.2443,-101.4537,10/17/2018,1/1/1948,"BIG SPRING, TX US",3.081404315,16,-100.7927011,32.71320531,0.81042686,Camp Springs II (08)
0.9841,1536.2,METERS,GHCND_USW00023176,38.41667,-113.01667,10/15/2018,8/1/1996,"MILFORD MUNICIPAL AIRPORT, UT US",3.697685178,17,-112.9308347,38.58522041,0.189147916,Milford Phase II
0.9357,1526.7,METERS,GHCND_USC00425654,38.40168,-113.01624,10/15/2018,1/1/1928,"MILFORD, UT US",3.697685178,17,-112.9308347,38.58522041,0.202437995,Milford Phase II
0.9998,1702.6,METERS,GHCND_USW00093129,37.7086,-113.0944,10/16/2018,7/1/1948,"CEDAR CITY AIRPORT, UT US",3.697685178,17,-112.9308347,38.58522041,0.891749372,Milford Phase II
0.9749,445,METERS,GHCND_USC00252020,40.6092,-96.872,10/17/2018,1893-07-01,"CRETE 4 ESE, NE US",2.567836929,15,-96.93413402,40.04623286,0.566385587,Steele Flats
0.9867,467.9,METERS,GHCND_USC00253065,40.6558,-97.2208,10/17/2018,1/1/1925,"FRIEND 3 E, NE US",2.567836929,15,-96.93413402,40.04623286,0.673609291,Steele Flats
0.7761,385.3,METERS,GHCND_USW00053989,39.29417,-96.92639,1/9/2017,6/1/2006,"FORT RILEY MULTIPLE PURPOSE RANGE, KS US",2.567836929,15,-96.93413402,40.04623286,0.752102733,Steele Flats
0.9841,1536.2,METERS,GHCND_USW00023176,38.41667,-113.01667,10/15/2018,8/1/1996,"MILFORD MUNICIPAL AIRPORT, UT US",3.697685178,17,-112.9350843,38.56036856,0.165243754,Milford Phase I
0.9357,1526.7,METERS,GHCND_USC00425654,38.40168,-113.01624,10/15/2018,1/1/1928,"MILFORD, UT US",3.697685178,17,-112.9350843,38.56036856,0.178236648,Milford Phase I
0.9998,1702.6,METERS,GHCND_USW00093129,37.7086,-113.0944,10/16/2018,7/1/1948,"CEDAR CITY AIRPORT, UT US",3.697685178,17,-112.9350843,38.56036856,0.866539767,Milford Phase I
0.9804,545.6,METERS,GHCND_USW00013962,32.4105,-99.6822,10/16/2018,8/1/1946,"ABILENE REGIONAL AIRPORT, TX US",3.081404315,16,-100.3629166,32.34161088,0.684193568,Sweetwater
0.8222,598.6,METERS,GHCND_USC00416499,31.45389,-100.49333,1/31/2008,12/1/1975,"O C FISHER DAM, TX US",3.081404315,16,-100.3629166,32.34161088,0.897249138,Sweetwater
0.9411,594.1,METERS,GHCND_USC00414278,31.84555,-99.56068,10/17/2018,7/1/1953,"HORDS CREEK DAM, TX US",3.081404315,16,-100.3629166,32.34161088,0.9432179,Sweetwater
0.9999,198.1,METERS,GHCND_USW00014842,40.6675,-89.6839,10/16/2018,5/4/1943,"PEORIA INTERNATIONAL AIRPORT, IL US",2.567836929,15,-89.06508889,40.58660744,0.624075954,White Oak
0.9691,140.2,METERS,GHCND_USC00114013,41.26472,-89.33806,6/30/2009,8/1/1962,"HENNEPIN POWER PLANT, IL US",2.567836929,15,-89.06508889,40.58660744,0.730992388,White Oak
0.9987,205.7,METERS,GHCND_USW00003887,39.83444,-88.86556,10/16/2018,11/1/2000,"DECATUR AIRPORT, IL US",2.567836929,15,-89.06508889,40.58660744,0.778182264,White Oak
0.9289,787,METERS,GHCND_USW00013985,37.7686,-99.9678,10/16/2018,4/1/1909,"DODGE CITY REGIONAL AIRPORT, KS US",3.697685178,17,-99.45061402,37.51496309,0.576032138,Shooting Star
0.9843,467.9,METERS,GHCND_USW00003957,37.2839,-98.5528,10/16/2018,2/5/1998,"MEDICINE LODGE 1 E, KS US",3.697685178,17,-99.45061402,37.51496309,0.927070741,Shooting Star
0.9749,618.7,METERS,GHCND_USC00343304,36.54417,-99.535,3/31/2012,7/1/1940,"FORT SUPPLY, OK US",3.697685178,17,-99.45061402,37.51496309,0.974453807,Shooting Star
0.9098,178.6,METERS,GHCND_USC00202423,44.2838,-83.5036,10/17/2018,1890-04-01,"EAST TAWAS, MI US",2.139864108,14,-83.41676137,43.64552721,0.644153011,Cross Winds Energy Park II
0.9989,201.2,METERS,GHCND_USW00014845,43.53306,-84.07972,10/16/2018,1898-01-01,"SAGINAW MBS INTERNATIONAL AIRPORT, MI US",2.139864108,14,-83.41676137,43.64552721,0.672430681,Cross Winds Energy Park II
0.9637,179.8,METERS,GHCND_USW00094898,44.02194,-82.79306,10/15/2018,6/24/1999,"PORT HOPE, MI US",2.139864108,14,-83.41676137,43.64552721,0.728484718,Cross Winds Energy Park II
0.8174,368.8,METERS,GHCND_USC00328937,46.9558,-98.0203,11/23/2011,1893-04-01,"VALLEY CITY 3 NNW, ND US",3.081404315,16,-97.94569835,47.2958647,0.348151413,Ashtabula II
0.9998,455.4,METERS,GHCND_USW00014919,46.9258,-98.6691,10/16/2018,7/1/1948,"JAMESTOWN MUNICIPAL AIRPORT, ND US",3.081404315,16,-97.94569835,47.2958647,0.812562508,Ashtabula II
0.9951,256.6,METERS,GHCND_USW00014916,47.9428,-97.1839,10/16/2018,8/7/1948,"GRAND FORKS INTERNATIONAL AIRPORT, ND US",3.081404315,16,-97.94569835,47.2958647,0.999430842,Ashtabula II
0.4942,1293.6,METERS,GHCND_USC00244193,46.9997,-109.8704,2/4/2018,7/1/1920,"HOBSON, MT US",2.139864108,14,-109.7511369,46.57020603,0.445745165,Judith Gap
0.9782,1310.6,METERS,GHCND_USC00245761,47.0573,-109.951,6/30/2018,1/1/1909,"MOCCASIN EXPERIMENT STATION, MT US",2.139864108,14,-109.7511369,46.57020603,0.526503359,Judith Gap
0.9742,1263.4,METERS,GHCND_USW00024036,47.0492,-109.4578,10/16/2018,1896-01-08,"LEWISTOWN AIRPORT, MT US",2.139864108,14,-109.7511369,46.57020603,0.561677633,Judith Gap
